{"type": "FeatureCollection", "features": [{"type": "Feature", "geometry": {"type": "Point", "coordinates": [8.179059, 6.793425]}, "properties": {"title": "INSTALLATION OF SOLAR POWER STREET LIGHTS IN OPIALU, OKPOKWU LGA, BENUE STATE", "year": "2019", "type": "SOLAR STREET LIGHT", "type2": "SSL", "status": "COMPLETED", "location": "OPIALU", "contractor": "SALMASUL GLOBAL RESOURCES LIMITED", "lot": "C010", "state": "BENUE", "state_raw": "BENUE"}}, {"type": "Feature", "geometry": {"type": "Point", "coordinates": [9.267182, 7.590161]}, "properties": {"title": "INSTALLATION OF SOLAR POWER STREET LIGHTS IN EKE-OKPASU, EKE-OLENDGBECHO, OKPOKWU LGA, BENUE STATE", "year": "2019", "type": "SOLAR STREET LIGHT", "type2": "SSL", "status": "COMPLETED", "location": "EKE-OKPASU, EKE-OLENDGBECHO", "contractor": "M & E ENGINEERING LIMITED", "lot": "C011", "state": "BENUE", "state_raw": "BENUE"}}, {"type": "Feature", "geometry": {"type": "Point", "coordinates": [8.046083, 7.289126]}, "properties": {"title": "ON-GOING ELECTRIFICATION OF SELECTED COMMUNITIES IN AI-KOR-OLLO, OJA APO-OGIGO AND IKPOGO-OKPAFE IN EFFOYO OKPOKWU LGA OF BENUE STATE", "year": "2019", "type": "GRID", "type2": "GRID", "status": "COMPLETED", "location": "AI-KOR-OILO, OJA APO OGIGO, IKPOGO-OKPAFE", "contractor": "SOLSTICE TECHNOLOGY", "lot": "D013", "state": "BENUE", "state_raw": "BENUE"}}, {"type": "Feature", "geometry": {"type": "Point", "coordinates": [9.063002, 7.358675]}, "properties": {"title": "ONGOING RURAL ELECTRIFICATION OF SOME COMMUNITIES OF GWER EAST/WEST FED. CONSTITUENCY, BENUE STATE", "year": "2019", "type": "GRID", "type2": "GRID", "status": "COMPLETED", "location": "GWER EAST/WEST FED. CONSTITUENCY", "contractor": "CEDAR CREED LIMITED", "lot": "D023", "state": "BENUE", "state_raw": "BENUE"}}, {"type": "Feature", "geometry": {"type": "Point", "coordinates": [8.050334, 7.436548]}, "properties": {"title": "ONGOING PROCUREMENT/INSTALLATION OF 200 KVA TRANSFORMER AT ZAKI NYITSE IKYAAN JUNCTION BY TSE IWA ALONG ABUKU-ORTESE MBASHIAN ROAD, BURUKU LGA", "year": "2019", "type": "GRID", "type2": "GRID", "status": "COMPLETED", "location": "ZAKI NYITSE", "contractor": "DARATECH GLOBAL SERVICES LTD", "lot": "D029", "state": "BENUE", "state_raw": "BENUE"}}, {"type": "Feature", "geometry": {"type": "Point", "coordinates": [9.430711, 7.627828]}, "properties": {"title": "PROVISION OF SOLAR STREET LIGHTS AT OKPOKWU LG A, BENUE STATE", "year": "2019", "type": "SOLAR STREET LIGHT", "type2": "SSL", "status": "COMPLETED", "location": "OKPOKWU", "contractor": "MURIX TECH. LTD.", "lot": "C027", "state": "BENUE", "state_raw": "BENUE"}}, {"type": "Feature", "geometry": {"type": "Point", "coordinates": [9.528985, 7.461953]}, "properties": {"title": "ONGOING PROVISION/INSTALLATION OF SOLAR STREET LIGHT AT IPARI OTUKPA-GOVERNMENT COLEGE OTUKPA IN OGBADIBO LGA, BENUE STATE", "year": "2019", "type": "SOLAR STREET LIGHT", "type2": "SSL", "status": "COMPLETED", "location": "IPARI OTUKPO GOVERNMENT COLEGE", "contractor": "JAYJEZ MULTI BUSINESS LTD", "lot": "C030", "state": "BENUE", "state_raw": "BENUE"}}, {"type": "Feature", "geometry": {"type": "Point", "coordinates": [9.433798, 7.683333]}, "properties": {"title": "PROVISION/INSTALLATION OF 500KVA TRANSFORMER AND ELECTRIFICATION OF OKPEJE-ADOKA COMMUNITY IN OTUKPO LGA, BENUE STATE", "year": "2019", "type": "GRID", "type2": "GRID", "status": "COMPLETED", "location": "OKPEJE-ADOKA COMMUNITY", "contractor": "WARTADEF LIMITED", "lot": "D040", "state": "BENUE", "state_raw": "BENUE"}}, {"type": "Feature", "geometry": {"type": "Point", "coordinates": [8.423133, 7.371147]}, "properties": {"title": "COMPLETION OF POWER IMPROVEMENT / REHABILITATION OF TRANSFORMER ACROSS BENUE SOUTH SENATORIAL DISTRICT, BENUE STATE.", "year": "2019", "type": "GRID", "type2": "GRID", "status": "COMPLETED", "location": "BENUE SOUTH SENATORIAL DISTRICT", "contractor": "LATSUL ENGINEERING LIMITED", "lot": "D001", "state": "BENUE", "state_raw": "BENUE"}}, {"type": "Feature", "geometry": {"type": "Point", "coordinates": [7.563018, 9.031268]}, "properties": {"title": "ONGOING ELECTRIFICATION OF KWAITA, YEBU IN FCT SENATORIAL DISTRICT", "year": "2019", "type": "GRID", "type2": "GRID", "status": "COMPLETED", "location": "KWAITA, YEBU", "contractor": "EASH PROGRESSIVE VENTURES LIMITED", "lot": "D004", "state": "ABUJA FEDERAL CAPITAL TERRITORY", "state_raw": "FCT"}}, {"type": "Feature", "geometry": {"type": "Point", "coordinates": [6.995125, 8.705642]}, "properties": {"title": "PURCHASE AND INSTALLATION OF 500KVA TRANSFORMER AT FCDA OWNER OCCUPIER (BEHIND STAMFORD HOTEL) KUBWA FCT, ABUJA.", "year": "2019", "type": "GRID", "type2": "GRID", "status": "COMPLETED", "location": "KUBWA", "contractor": "CRYSTAL QUALITY Y.M.S LIMITED", "lot": "D006", "state": "ABUJA FEDERAL CAPITAL TERRITORY", "state_raw": "FCT"}}, {"type": "Feature", "geometry": {"type": "Point", "coordinates": [6.855295, 8.649648]}, "properties": {"title": "PROVISION/INSTALLATION OF SOLAR POWERED STREET LIGHT AT FO1 NEAR SOKALE GARDEN, KUBWA VILLAGE, FCT", "year": "2019", "type": "SOLAR STREET LIGHT", "type2": "SSL", "status": "COMPLETED", "location": "FO1 NEAR SOKALE GARDEN, KUBWA VILLAGE", "contractor": "DARATECH GLOBAL SERVICES LTD", "lot": "C014", "state": "ABUJA FEDERAL CAPITAL TERRITORY", "state_raw": "FCT"}}, {"type": "Feature", "geometry": {"type": "Point", "coordinates": [6.875319, 8.694349]}, "properties": {"title": "INSTALLATION OF SOLAR STREET LIGHTS AT OWULABI CLOSE, BY LEAN-ON-ME SCHOOL, JIKWOYI PHASE I EXTENSION ABUJA.", "year": "2019", "type": "SOLAR STREET LIGHT", "type2": "SSL", "status": "COMPLETED", "location": "OWULABI", "contractor": "SPADY GLOBAL SEERVICES NIGERIA LIMITED", "lot": "C016", "state": "ABUJA FEDERAL CAPITAL TERRITORY", "state_raw": "FCT"}}, {"type": "Feature", "geometry": {"type": "Point", "coordinates": [7.380123, 8.780282]}, "properties": {"title": "PROVISION/INSTALLATION OF 55NOS. SOLAR POWERED STREET LIGHT AT KARASANA, IPENT AND EFAB ROADS, FCT, ABUJA", "year": "2019", "type": "SOLAR STREET LIGHT", "type2": "SSL", "status": "COMPLETED", "location": "KARSANA", "contractor": "INNOVINE INVESTMENT SERVICES LIMITED", "lot": "C019", "state": "ABUJA FEDERAL CAPITAL TERRITORY", "state_raw": "FCT"}}, {"type": "Feature", "geometry": {"type": "Point", "coordinates": [7.129457, 8.626612]}, "properties": {"title": "PROVISION/INSTALLATION OF 300KVA TRANSFORMER AT IPENT-KARASANA, ABUJA", "year": "2019", "type": "GRID", "type2": "GRID", "status": "COMPLETED", "location": "IPENT-KARSANA", "contractor": "GRANDEUR PROJECTS LTD", "lot": "D035", "state": "ABUJA FEDERAL CAPITAL TERRITORY", "state_raw": "FCT"}}, {"type": "Feature", "geometry": {"type": "Point", "coordinates": [7.391784, 9.021979]}, "properties": {"title": "PROVISION/INSTALLATION OF 500KVA TRANSFORMER AT TPOMPY ESTATE, CADASTRAL ZONE, LUGBE, ABUJA", "year": "2019", "type": "GRID", "type2": "GRID", "status": "COMPLETED", "location": "TPAMPY ESTATE, CADASTRIAL ZONE, LUGBE", "contractor": "SAKALETRIC ENGINEERING NIG. LTD", "lot": "D038", "state": "ABUJA FEDERAL CAPITAL TERRITORY", "state_raw": "FCT"}}, {"type": "Feature", "geometry": {"type": "Point", "coordinates": [6.941537, 9.140697]}, "properties": {"title": "PROVISION/INSTALLATION OF SOLAR STREET LIGHTS AT PLOT 99, GBAZANGO EXTENSION II  KUBWA, BWARI AREA COUNCIL, ABUJA", "year": "2019", "type": "SOLAR STREET LIGHT", "type2": "SSL", "status": "COMPLETED", "location": "GBAZANGO EXTENSION II KUBWA", "contractor": "LUCOMBO NIGERIA LIMITED", "lot": "C029", "state": "ABUJA FEDERAL CAPITAL TERRITORY", "state_raw": "FCT"}}, {"type": "Feature", "geometry": {"type": "Point", "coordinates": [6.703354, 8.050978]}, "properties": {"title": "SUPPLY AND INSTALLATION OF ALL-IN-ONE SOLAR STREET LIGHTS IN OZUJA STREET IN OBEHIRA COMMUNITY OF KOGI CENTRAL SENATORIAL DISTRICT.", "year": "2019", "type": "SOLAR STREET LIGHT", "type2": "SSL", "status": "COMPLETED", "location": "OBEHIRA COMMUNITY", "contractor": "MAHAD AND ASSOCIATES ENGINEERING", "lot": "C006", "state": "KOGI", "state_raw": "KOGI"}}, {"type": "Feature", "geometry": {"type": "Point", "coordinates": [7.495863, 7.244198]}, "properties": {"title": "SUPPLY AND INSTALLATION OF ALL-IN-ONE SOLAR STREET LIGHTS IN IDICHE, OBINI STREETS IN OKENE COMMUNITY OF KOGI CENTRAL SENATORIAL DISTRICT.", "year": "2019", "type": "SOLAR STREET LIGHT", "type2": "SSL", "status": "COMPLETED", "location": "IDICHE, OBINI, OKENE COMMUNITIES", "contractor": "SAFIATU GLOBAL NIG. LTD.", "lot": "C006", "state": "KOGI", "state_raw": "KOGI"}}, {"type": "Feature", "geometry": {"type": "Point", "coordinates": [6.947715, 7.420747]}, "properties": {"title": "SUPPLY AND INSTALLATION OF ALL-IN-ONE SOLAR STREET LIGHTS IN ADOGO, UKAKO STREETS IN KOGI CENTRAL SENATORIAL DISTRICT.", "year": "2019", "type": "SOLAR STREET LIGHT", "type2": "SSL", "status": "COMPLETED", "location": "ADOGO, UKAKO", "contractor": "G2 SYNERGY SOLUTIONS NIG. LTD.", "lot": "C008", "state": "KOGI", "state_raw": "KOGI"}}, {"type": "Feature", "geometry": {"type": "Point", "coordinates": [7.590592, 7.558621]}, "properties": {"title": "PROVISION AND INSTALLATION OF TRANSFORMERS IN ADO ODO OTA, IPOKIA, IMEKO AFO AND YEWA SOUTH LOCAL GOVERNMENTS OF KOGI STATE.", "year": "2019", "type": "GRID", "type2": "GRID", "status": "COMPLETED", "location": "ADO ODO OTA, IPOKIA, IMEKO AFO", "contractor": "SABHADU GLOBAL CONCEPT LTD.", "lot": "D010", "state": "KOGI", "state_raw": "KOGI"}}, {"type": "Feature", "geometry": {"type": "Point", "coordinates": [7.286735, 7.478601]}, "properties": {"title": "PROVISION/INSTALLATION  OF SOLAR POWERED STREET LIGHT AT EFEKPE IMANE OLAMABORO LGA IN KOGI STATE", "year": "2019", "type": "SOLAR STREET LIGHT", "type2": "SSL", "status": "COMPLETED", "location": "EFEKPE IMANE", "contractor": "ABRUK NIGERIA LIMITED", "lot": "C009", "state": "KOGI", "state_raw": "KOGI"}}, {"type": "Feature", "geometry": {"type": "Point", "coordinates": [7.012898, 7.728987]}, "properties": {"title": "ON-GOING RURAL ELECTRIFICATION OF SABO TANWARI-KOTOKARUFI-LAYOUT AND OZI IN KOGI STATE", "year": "2019", "type": "GRID", "type2": "GRID", "status": "COMPLETED", "location": "SABO TANWARI, KOTOKARUFI-LAYOUT AND OZI", "contractor": "S B MOGAJI GLOBAL SERVICES LIMITED", "lot": "D012", "state": "KOGI", "state_raw": "KOGI"}}, {"type": "Feature", "geometry": {"type": "Point", "coordinates": [5.983524, 7.955778]}, "properties": {"title": "PROCUREMENT/INSTALLATION OF 300KVA TRANSFORMERS AT KABBA-BUNU/IJUMU FED. CONSTITUENCY, KOGI STATE", "year": "2019", "type": "GRID", "type2": "GRID", "status": "COMPLETED", "location": "KABBA BUNU/IJUMU", "contractor": "BROWN OBILITY &CO. LIMITED", "lot": "D020", "state": "KOGI", "state_raw": "KOGI"}}, {"type": "Feature", "geometry": {"type": "Point", "coordinates": [7.494586, 7.132344]}, "properties": {"title": "PROVISION/INSTALLATION OF 55NOS. SOLAR POWERED STREET LIGHT AT ADAVI-EBA COMMUNITY, ADAVI LGA CEMETERY, KOGI STATE.", "year": "2019", "type": "SOLAR STREET LIGHT", "type2": "SSL", "status": "COMPLETED", "location": "ADAVI EBA COMMUNITY", "contractor": "ABIBAT HAMALI CONSTRUCTION LIMITED", "lot": "C017", "state": "KOGI", "state_raw": "KOGI"}}, {"type": "Feature", "geometry": {"type": "Point", "coordinates": [6.061976, 7.95139]}, "properties": {"title": "SUPPLY/INSTALLATION OF SOLAR STREET LIGHTS AT AGWODABA-OKPO, OLAMABORO LGA, KOGI STATE", "year": "2019", "type": "SOLAR STREET LIGHT", "type2": "SSL", "status": "COMPLETED", "location": "AGWODABA-OKPO,", "contractor": "BELTEK GLOBAL SOLUTIONS LIMITED", "lot": "C020", "state": "KOGI", "state_raw": "KOGI"}}, {"type": "Feature", "geometry": {"type": "Point", "coordinates": [6.832422, 6.89125]}, "properties": {"title": "PROVISION OF 100KWP SOLAR HYBRIDS MINI-GRID SYSTEM IN 250 BED COTTAGE HOSPITAL UKPOGO, OKENE LGA, KOGI STATE", "year": "2019", "type": "SOLAR MINI GRID", "type2": "SMG", "status": "COMPLETED", "location": "250 BED COTTAGE HOSPITAL UKPOGO", "contractor": "BAMS ELECTRICAL SERVICES LTD", "lot": "A003", "state": "KOGI", "state_raw": "KOGI"}}, {"type": "Feature", "geometry": {"type": "Point", "coordinates": [7.213373, 7.73424]}, "properties": {"title": "ELECTRIFICATION OF OYATOJI IN DEKINA LGA, KOGI STATE", "year": "2019", "type": "GRID", "type2": "GRID", "status": "COMPLETED", "location": "OYATOJI", "contractor": "ERNESCO GALVANIZING INDUSTRY LIMITED", "lot": "D028", "state": "KOGI", "state_raw": "KOGI"}}, {"type": "Feature", "geometry": {"type": "Point", "coordinates": [7.253357, 7.714557]}, "properties": {"title": "ELECTRIFICATION OF OWORA, ATSAWA, APATA, BUDON IN LOKOJA LGA, KOGI STATE", "year": "2019", "type": "GRID", "type2": "GRID", "status": "COMPLETED", "location": "OWORA,ATSAWA,APATA,BUDON", "contractor": "LION WAY VENTURES LIMITED", "lot": "D032", "state": "KOGI", "state_raw": "KOGI"}}, {"type": "Feature", "geometry": {"type": "Point", "coordinates": [5.493226, 8.216698]}, "properties": {"title": "PROVISION AND INSTALLATION OF SOLAR STREET LIGHT AT OKEBUKUN, ILETEJU MOPA, MOPAMURO LGA, KOGI STATE", "year": "2019", "type": "SOLAR STREET LIGHT", "type2": "SSL", "status": "COMPLETED", "location": "OKEBUKUN, ILETEJUMOPA,", "contractor": "TEAM OPTION SERVICES LTD", "lot": "C023", "state": "KOGI", "state_raw": "KOGI"}}, {"type": "Feature", "geometry": {"type": "Point", "coordinates": [6.500728, 7.756975]}, "properties": {"title": "PROVISION AND INSTALLATION OF SOLAR STREET LIGHT AT INOZIOMI, ADAVI LGA, KOGI STATE", "year": "2019", "type": "SOLAR STREET LIGHT", "type2": "SSL", "status": "COMPLETED", "location": "INOZIOMI", "contractor": "ZOVARCH NIGERIA LIMITED", "lot": "C024", "state": "KOGI", "state_raw": "KOGI"}}, {"type": "Feature", "geometry": {"type": "Point", "coordinates": [6.659553, 8.149808]}, "properties": {"title": "PROVISION/INSTALLATION OF 40KW SOLAR HYBRID MINIGRID AT ADAVI-EBA,ADAVI LGA, KOGI STATE", "year": "2019", "type": "SOLAR MINI GRID", "type2": "SMG", "status": "COMPLETED", "location": "ADAVI EBA", "contractor": "CITINET TECHNOLOGY", "lot": "A004", "state": "KOGI", "state_raw": "KOGI"}}, {"type": "Feature", "geometry": {"type": "Point", "coordinates": [6.408475, 7.68669]}, "properties": {"title": "PROVISION OF SOLAR STREET LIGHTS AT REDEEMED COMMUNITY AREA, PHASE 2, LOKOJA, KOGI STATE", "year": "2019", "type": "SOLAR STREET LIGHT", "type2": "SSL", "status": "COMPLETED", "location": "REDEEMED COMMUNITY AREA", "contractor": "EL-ASHN NIGERIA LTD", "lot": "C026", "state": "KOGI", "state_raw": "KOGI"}}, {"type": "Feature", "geometry": {"type": "Point", "coordinates": [6.160329, 7.840949]}, "properties": {"title": "PROVISION OF SOLAR STREET LIGHTS AT ORO LAY OUT, OKENGWE, KOGI STATE", "year": "2019", "type": "SOLAR STREET LIGHT", "type2": "SSL", "status": "COMPLETED", "location": "ORO LAY OUT, OKENGWE", "contractor": "ABELL PROJECTS LIMITED", "lot": "C028", "state": "KOGI", "state_raw": "KOGI"}}, {"type": "Feature", "geometry": {"type": "Point", "coordinates": [5.912017, 8.016877]}, "properties": {"title": "PROVISION/INSTALLATION OF 300KVA TRANSFORMER AT ORO LAY OUT, OKENGWE, KOGI STATE", "year": "2019", "type": "GRID", "type2": "GRID", "status": "COMPLETED", "location": "ORO LAY OUT, OKENGWE", "contractor": "MAAQALLAH INTEGRATED SERVICES LIMITED", "lot": "D037", "state": "KOGI", "state_raw": "KOGI"}}, {"type": "Feature", "geometry": {"type": "Point", "coordinates": [7.642612, 7.803295]}, "properties": {"title": "ONGOING RURAL ELECTRIFICATION OF AGALIGA, ETUKWO IN OLAMABORO LGA OF KOGI STATE", "year": "2019", "type": "GRID", "type2": "GRID", "status": "COMPLETED", "location": "AGALIGA, ETUKWO", "contractor": "NIGER DELTA ENGINEERING LTD", "lot": "D039", "state": "KOGI", "state_raw": "KOGI"}}, {"type": "Feature", "geometry": {"type": "Point", "coordinates": [6.494249, 8.269076]}, "properties": {"title": "COMPLETION OF SOLAR STREET LIGHT IN OGGA, OMI AND ODO-ARA 120 NOS YAGBA WEST LGA, KOGI STATE", "year": "2019", "type": "SOLAR STREET LIGHT", "type2": "SSL", "status": "COMPLETED", "location": "OGGA, OMI, ODO-ARA", "contractor": "OLD FIELD NIGERIA LTD", "lot": "C002", "state": "KOGI", "state_raw": "KOGI"}}, {"type": "Feature", "geometry": {"type": "Point", "coordinates": [6.372446, 7.576445]}, "properties": {"title": "COMPLETION OF SOLAR STREET LIGHT IN OGBOM, ITEDO-AMURO, OFIN  AMURO AND ITEDO - OBA ISANLU 120 NOS YAGBA EAST LGA, KOGI STATE", "year": "2019", "type": "SOLAR STREET LIGHT", "type2": "SSL", "status": "COMPLETED", "location": "", "contractor": "RAMSY & ASSOCIATES LTD", "lot": "C003", "state": "KOGI", "state_raw": "KOGI"}}, {"type": "Feature", "geometry": {"type": "Point", "coordinates": [7.459403, 7.100214]}, "properties": {"title": "COMPLETION OF SOLAR STREET LIGHT IN ODO-ERE, ODO-ERI, IGABARAKU AND IYAMER IN 120 NOS YAGBA WEST LGA, KOGI STATE.", "year": "2019", "type": "SOLAR STREET LIGHT", "type2": "SSL", "status": "COMPLETED", "location": "ODO-ERE, ODO-ERI, IGABARAKU AND IYAMER", "contractor": "MUQUASH GLOBAL SERVICES LIMITED", "lot": "C004", "state": "KOGI", "state_raw": "KOGI"}}, {"type": "Feature", "geometry": {"type": "Point", "coordinates": [6.420957, 8.436413]}, "properties": {"title": "COMPLETION OF SOLAR STREET LIGHT IN OKOLOKE, ISANLU-ESA, OKUNRAN AND OGBE 120 NOS IN YAGBA WEST LGA, KOGI STATE.", "year": "2019", "type": "SOLAR STREET LIGHT", "type2": "SSL", "status": "COMPLETED", "location": "OKOLOKE, ISANLU-ESA, OKUNRAN AND OGBE", "contractor": "JS MATRIX INTERNATIONAL LIMITED", "lot": "C005", "state": "KOGI", "state_raw": "KOGI"}}, {"type": "Feature", "geometry": {"type": "Point", "coordinates": [4.650153, 8.116387]}, "properties": {"title": "SUPPLY AND INSTALLATION  OF OUTDOOR CIRCUIT BREAKERS AT APA LARA INJECTION SUBSTATION IN KWARA STATE", "year": "2019", "type": "GRID", "type2": "GRID", "status": "COMPLETED", "location": "APA LARA", "contractor": "TLMB CONSTRUCTION LTD", "lot": "B001", "state": "KWARA", "state_raw": "KWARA"}}, {"type": "Feature", "geometry": {"type": "Point", "coordinates": [4.425985, 8.467015]}, "properties": {"title": "COMPLETION OF ON GOING 15KVA INJECTION SUBSTATION AT OKO OLO'WO, ILORIN - KWARA STATE", "year": "2019", "type": "GRID", "type2": "GRID", "status": "COMPLETED", "location": "OKO OLO'WO", "contractor": "TOPFAT GLOBAL LINKS LIMITED", "lot": "B002", "state": "KWARA", "state_raw": "KWARA"}}, {"type": "Feature", "geometry": {"type": "Point", "coordinates": [3.66204, 9.692635]}, "properties": {"title": "SUPPLY AND INSTALLATION OF TRANSFORMERS IN ILORIN WEST, KWARA STATE", "year": "2019", "type": "GRID", "type2": "GRID", "status": "COMPLETED", "location": "ILORIN WEST", "contractor": "THAOHABIB GLOBAL CONCEPT NIGERIA LIMITED", "lot": "D016", "state": "KWARA", "state_raw": "KWARA"}}, {"type": "Feature", "geometry": {"type": "Point", "coordinates": [4.319825, 8.916713]}, "properties": {"title": "COMPLETION OF ONGOING 1 NO 15 MVA 33/11KV TRANSFORMER AT HARMONY AREA", "year": "2019", "type": "GRID", "type2": "GRID", "status": "COMPLETED", "location": "", "contractor": "MUSRAFAKHAD NIGERIA LIMITED", "lot": "B003", "state": "KWARA", "state_raw": "KWARA"}}, {"type": "Feature", "geometry": {"type": "Point", "coordinates": [5.828318, 8.536788]}, "properties": {"title": "PROVISION/INSTALLATION OF 300KVA TRANSFORMER AT LASISI ADEKUNLE RAJI STREET/PEE IN OYUN LGA, KWARA STATE", "year": "2019", "type": "GRID", "type2": "GRID", "status": "COMPLETED", "location": "LASISI ADEKUNLE RAJI STREET/PEE IN OYUN", "contractor": "ELECTRIC CITY ENERGY", "lot": "D036", "state": "KWARA", "state_raw": "KWARA"}}, {"type": "Feature", "geometry": {"type": "Point", "coordinates": [4.195814, 9.261981]}, "properties": {"title": "SUPPLY AND INSTALLATION OF OF SOLAR STREET LIGHTS AT IN ILORIN WEST LGA, KWARA STATE", "year": "2019", "type": "SOLAR STREET LIGHT", "type2": "SSL", "status": "COMPLETED", "location": "ILORIN WEST", "contractor": "ABOUS GLOBAL SOLUTIONS LIMITED", "lot": "C031", "state": "KWARA", "state_raw": "KWARA"}}, {"type": "Feature", "geometry": {"type": "Point", "coordinates": [3.450834, 9.546764]}, "properties": {"title": "INSTALLATION OF SOLAR STREETLIGHT IN ALORE AREA, ILORIN WEST, KWARA STATE", "year": "2019", "type": "SOLAR STREET LIGHT", "type2": "SSL", "status": "COMPLETED", "location": "", "contractor": "ASSRAL GLOBAL CONCEPT LIMITED", "lot": "C001", "state": "KWARA", "state_raw": "KWARA"}}, {"type": "Feature", "geometry": {"type": "Point", "coordinates": [7.575002, 8.384825]}, "properties": {"title": "ELECTRIFICATION OF EPE VILLAGE, KARU LGA NASARAWA STATE", "year": "2019", "type": "GRID", "type2": "GRID", "status": "COMPLETED", "location": "EPE VILLAGE", "contractor": "CONTECH ENGINEERING", "lot": "D011", "state": "NASARAWA", "state_raw": "NASARAWA"}}, {"type": "Feature", "geometry": {"type": "Point", "coordinates": [8.736708, 8.2351]}, "properties": {"title": "REQUEST FOR ELECTRIFICATION OF MAMA TOWN DEVELOPMENT ASSOCIATION IN FARIN RUWA DEVELOPMENT AREA, WAMBA LGA, NASSARAWA STATE", "year": "2019", "type": "GRID", "type2": "GRID", "status": "COMPLETED", "location": "MAMA TOWN, FARIN RUWA VILLAGE", "contractor": "BROOKS CONSOLIDATED INVESTMENT LTD", "lot": "D014", "state": "NASARAWA", "state_raw": "NASARAWA"}}, {"type": "Feature", "geometry": {"type": "Point", "coordinates": [7.782903, 8.941401]}, "properties": {"title": "PROVISION OF  OF 15 NOS. SOLAR STREET LIGHT AT AGAGA-EPE COMMUNITY, ASO PADA DISTRICT, KARU LGA, NASARAWA STATE.", "year": "2019", "type": "SOLAR STREET LIGHT", "type2": "SSL", "status": "COMPLETED", "location": "AGAGA EPE COMMUNITY, ASO PADA DISTRICT", "contractor": "SFY ENG & SUPPLY LTD", "lot": "C015", "state": "NASARAWA", "state_raw": "NASARAWA"}}, {"type": "Feature", "geometry": {"type": "Point", "coordinates": [7.131182, 8.099358]}, "properties": {"title": "EXTENSION OF ELECTRICITY POLES AND INSTALLATION OF 300 KVA TRANSFORMER AT KUDINAWI EXTENSION COMMUNITY, BEHIND ORANGE MARKET, MARARBA, KARU LGA, NASARAWA STATE", "year": "2019", "type": "GRID", "type2": "GRID", "status": "COMPLETED", "location": "MARARABA", "contractor": "UBIRAK LIMITED", "lot": "D015", "state": "NASARAWA", "state_raw": "NASARAWA"}}, {"type": "Feature", "geometry": {"type": "Point", "coordinates": [7.646137, 9.224935]}, "properties": {"title": "PROCUREMENT/INSTALLATION OF 300KVA TRANSFORMERS AT LIFIA/OBI FED. CONSTITUENCY, NASARAWA STATE", "year": "2019", "type": "GRID", "type2": "GRID", "status": "COMPLETED", "location": "LAFIA, OBI FED CONSTITUENCY", "contractor": "SPEC-ON GLOBAL LINKS LTS", "lot": "D018", "state": "NASARAWA", "state_raw": "NASARAWA"}}, {"type": "Feature", "geometry": {"type": "Point", "coordinates": [7.926035, 8.012753]}, "properties": {"title": "COMPLETION OF RURAL ELECTRIFICATION OF SOME COMMUNITIES IN KARU, KEFFI  KOKONA LGA, NASARAWA STATE", "year": "2019", "type": "GRID", "type2": "GRID", "status": "COMPLETED", "location": "KARU", "contractor": "JERO WORLD CONTINENTAL LIMITED", "lot": "D021", "state": "NASARAWA", "state_raw": "NASARAWA"}}, {"type": "Feature", "geometry": {"type": "Point", "coordinates": [9.126839, 8.234133]}, "properties": {"title": "PROVISION/INSTALLATION OF 300KVA TRANSFORMERS IN AKWANGA/WAMBA/NASARAWA EGGON FED. CONSTITUENCY", "year": "2019", "type": "GRID", "type2": "GRID", "status": "COMPLETED", "location": "AKWANGA, WAMBA, NASARAWA EGGON FEDERAL CONSTITUENCY", "contractor": "CLOAKS OF CLEDE LTD", "lot": "D027", "state": "NASARAWA", "state_raw": "NASARAWA"}}, {"type": "Feature", "geometry": {"type": "Point", "coordinates": [7.665314, 8.711575]}, "properties": {"title": "LINKING OF HIGH TENSION CABLE FROM GARAKU TO KUNDAMI AND ANZAH COMMUNITIES, NASARAWA STATE", "year": "2019", "type": "GRID", "type2": "GRID", "status": "COMPLETED", "location": "GARAKU TO KUNDAMI AND ANZAH", "contractor": "DANYAMA ENTERRISES", "lot": "D031", "state": "NASARAWA", "state_raw": "NASARAWA"}}, {"type": "Feature", "geometry": {"type": "Point", "coordinates": [8.859912, 8.08442]}, "properties": {"title": "PROVISION AND INSTALLATION OF SOLAR STREET LIGHT AT LIMAN ABAJI AND KOFAR MASA , KEFFI LGA, NASARAWA STATE", "year": "2019", "type": "SOLAR STREET LIGHT", "type2": "SSL", "status": "COMPLETED", "location": "KOFAR MASA", "contractor": "AIE CONSULTING LIMITED", "lot": "C025", "state": "NASARAWA", "state_raw": "NASARAWA"}}, {"type": "Feature", "geometry": {"type": "Point", "coordinates": [8.636227, 8.178809]}, "properties": {"title": "COMPLETION OF ELECTRIFICATION OF GUNDUMA, TUDU UKU, GITATA LIGHT PROJECT IN KARU LGA", "year": "2019", "type": "GRID", "type2": "GRID", "status": "COMPLETED", "location": "", "contractor": "CHRISOKESON INTERNATIONAL LIMITED", "lot": "D041", "state": "NASARAWA", "state_raw": "NASARAWA"}}, {"type": "Feature", "geometry": {"type": "Point", "coordinates": [8.071042, 8.198654]}, "properties": {"title": "PROVISION AND INSTALLATION OF SOLAR STREET LIGHT AT ANGWAN DOKA IN KOKONA LGA", "year": "2019", "type": "SOLAR STREET LIGHT", "type2": "SSL", "status": "COMPLETED", "location": "ANGWAN  DOKA", "contractor": "MAAQALLAH INTEGRATED SERVICES LIMITED", "lot": "C032", "state": "NASARAWA", "state_raw": "NASARAWA"}}, {"type": "Feature", "geometry": {"type": "Point", "coordinates": [6.000873, 9.023261]}, "properties": {"title": "PROVISION & INSTALLATION OF SOLAR STREET LIGHTS IN  SELECTED VILLAGES ALONG THE KAINJI LAKE IN NIGER NORTH SENATORIAL DISTRICT", "year": "2019", "type": "SOLAR STREET LIGHT", "type2": "SSL", "status": "COMPLETED", "location": "KAINJI VILLAGES", "contractor": "LOGKEG ENGINEERING LIMITED", "lot": "D008", "state": "NIGER", "state_raw": "NIGER"}}, {"type": "Feature", "geometry": {"type": "Point", "coordinates": [6.396176, 9.952591]}, "properties": {"title": "ELECTRIFICATION OF MASUGA, ALALA KABOJI, MAIKURA-SAHORAMI, TUKUNJI, AKARE COMMUNITIES IN KONTAGORA, MASHEGU, AND WUSHISHI LGA WITH 500KVA TRANSFORMER IN AKARE AND CHEJI COMMUNITES OF NIGER NORTH SENATORIAL DISTRICT", "year": "2019", "type": "GRID", "type2": "GRID", "status": "COMPLETED", "location": "MASUGA, ALALA KABOJI, MAIKURA-SAHORAMI, TUKUNJI, AKARE COMMUNITIES", "contractor": "JUGGERNAUT INDUSTRIES LIMITED", "lot": "D009", "state": "NIGER", "state_raw": "NIGER"}}, {"type": "Feature", "geometry": {"type": "Point", "coordinates": [7.013891, 9.933056]}, "properties": {"title": "PROVISION/INSTALLATION OF 55NOS. SOLAR POWERED STREET LIGHT AT JUBILEE ROAD AND AWWAL IBRAHIM STADIUM ROAD SULEJA LGA, NIGER STATE.", "year": "2019", "type": "SOLAR STREET LIGHT", "type2": "SSL", "status": "COMPLETED", "location": "JUBILEE ROAD AND AWWAL IBRAHIM STADIUM ROAD SULEJA LGA", "contractor": "FESOL UNIQUE CONCEPT NIGERIA LIMITED", "lot": "C018", "state": "NIGER", "state_raw": "NIGER"}}, {"type": "Feature", "geometry": {"type": "Point", "coordinates": [6.750652, 10.05148]}, "properties": {"title": "PROVISION/INSTALLATION OF 40KVA HYBRID SOLAR MINIGRID AT KURMI SARKI COMMUNITY, STADIUM ROAD, SULEJA LGA, NIGER STATE.", "year": "2019", "type": "SOLAR MINI GRID", "type2": "SMG", "status": "COMPLETED", "location": "KURMI SARKI STATDIUM ROAD", "contractor": "BLUE CAMEL ENERGY", "lot": "A002", "state": "NIGER", "state_raw": "NIGER"}}, {"type": "Feature", "geometry": {"type": "Point", "coordinates": [5.124838, 10.173857]}, "properties": {"title": "SUPPLY AND INSTALLATION OF 2 UNITS AND POLES OF IPP TRANSFORMER AT MINNA LONDON STREET, NIGER STATE", "year": "2019", "type": "GRID", "type2": "GRID", "status": "COMPLETED", "location": "MINNA LONDON STREET TUDWADA SOUTH", "contractor": "DOTMIC OPTIONS LIMITED", "lot": "D025", "state": "NIGER", "state_raw": "NIGER"}}, {"type": "Feature", "geometry": {"type": "Point", "coordinates": [4.843153, 11.168716]}, "properties": {"title": "ELECTRIFICATION OF TSOWA DZARU VILLAGE GBAKO LGA, NIGER STATE", "year": "2019", "type": "GRID", "type2": "GRID", "status": "COMPLETED", "location": "TSOWA DZARU VILLAGE", "contractor": "NEW EDEM VENTURES LIMITED", "lot": "D034", "state": "NIGER", "state_raw": "NIGER"}}, {"type": "Feature", "geometry": {"type": "Point", "coordinates": [6.660117, 9.038819]}, "properties": {"title": "PROVISION/INSTALLATION OF 500KVA TRANSFORMERS AT CHANCHAGA FED. CONSTITUENCY", "year": "2019", "type": "GRID", "type2": "GRID", "status": "COMPLETED", "location": "NYEKANGBE VILLAGE", "contractor": "LUXURIATE CONTRACTING SERVICES LIMITED", "lot": "D042", "state": "NIGER", "state_raw": "NIGER"}}, {"type": "Feature", "geometry": {"type": "Point", "coordinates": [6.57137, 8.529737]}, "properties": {"title": "PROVISION/INSTALLATION OF 300KVA TRANSFORMER AT B-DIVISION JUNCTION, SULEJA LGA, NIGER STATE", "year": "2019", "type": "GRID", "type2": "GRID", "status": "COMPLETED", "location": "", "contractor": "HARMONY GLOBAL MULTI BUSINESS LTD.", "lot": "D043", "state": "NIGER", "state_raw": "NIGER"}}, {"type": "Feature", "geometry": {"type": "Point", "coordinates": [4.426458, 10.802311]}, "properties": {"title": "ONGOING PROCUREMENT/INSTALLATION OF 500KVA TRANSFORMER  AT GBODOTI AND ELECTRIFICATION OF LAZHIKOLO, EMIGI AND KWALE COMMUNITIES IN EDATI LGA, NIGER STATE", "year": "2019", "type": "GRID", "type2": "GRID", "status": "COMPLETED", "location": "GBODOTI, LAZHIKOLO, EMIGI AND KWALE COMMUNITIES", "contractor": "CHATZ INTERNATIONAL SERVICES LIMITED", "lot": "D044", "state": "NIGER", "state_raw": "NIGER"}}, {"type": "Feature", "geometry": {"type": "Point", "coordinates": [5.329578, 9.161945]}, "properties": {"title": "CONSTRUCTION AND INSTALLATION OF SOLAR HYBRID ACROSS MINNA METROPOLY CHANCHAGA FEDERAL CONSTITUENCY, NIGER STATE", "year": "2019", "type": "SOLAR STREET LIGHT", "type2": "SSL", "status": "COMPLETED", "location": "CHANCHAGA FED CONSTITUENCY", "contractor": "QBOYS GLOBAL RESOURCES LIMITED", "lot": "A001", "state": "NIGER", "state_raw": "NIGER"}}, {"type": "Feature", "geometry": {"type": "Point", "coordinates": [10.213048, 8.825185]}, "properties": {"title": "ONGING PROCUREMENT/INSTALLATION OF 300KVA TRANSFORMER AT KUMKWAM AND ROAD BLOCK AREAS OF LANGTANG NORTH AND ELECTRIFICATION OF THESE COMMUNITIES", "year": "2019", "type": "GRID", "type2": "GRID", "status": "COMPLETED", "location": "KUMKWAM COMMUNITIES", "contractor": "PHILKO LTD", "lot": "D017", "state": "PLATEAU", "state_raw": "PLATEAU"}}, {"type": "Feature", "geometry": {"type": "Point", "coordinates": [9.892029, 9.171679]}, "properties": {"title": "PROCUREMENT/INSTALLATION OF 300KVA TRANSFORMERS AT KURGWI AND YELWA TOWN IN FED. CONSTITUENCY, PLATEAU STATE", "year": "2019", "type": "GRID", "type2": "GRID", "status": "COMPLETED", "location": "KURGWI AND YELWA", "contractor": "RHAFFAM SAM CONSTRUCTION", "lot": "D019", "state": "PLATEAU", "state_raw": "PLATEAU"}}, {"type": "Feature", "geometry": {"type": "Point", "coordinates": [8.77982, 9.241922]}, "properties": {"title": "ONGOING ELECTRIFICATION OF FWIL (VWANG), MAIJUJU AND SUPPLY/INSTALLATION OF 3N0S 300KVA TRANSFORMERS AT TURU,SHIZAM AND GYEL ALL IN JOS SOUTH/EAST LGA, PLATEAU STATE", "year": "2019", "type": "GRID", "type2": "GRID", "status": "COMPLETED", "location": "FWIL, MAIJUJU, TURU,SHIZAM", "contractor": "ABRUK NIGERIA LTD", "lot": "D022", "state": "PLATEAU", "state_raw": "PLATEAU"}}, {"type": "Feature", "geometry": {"type": "Point", "coordinates": [10.073677, 8.998513]}, "properties": {"title": "PROCUREMENT AND INSTALLATION OF 300KVA TRANSFORMERS IN VARIOUS LOCATION OF WASE FED CONSTITUENCY, PLATEAU STATE", "year": "2019", "type": "GRID", "type2": "GRID", "status": "COMPLETED", "location": "WASE FED CONSTITUENCY", "contractor": "DAVNOTCH NIGERIA LTD", "lot": "D024", "state": "PLATEAU", "state_raw": "PLATEAU"}}, {"type": "Feature", "geometry": {"type": "Point", "coordinates": [9.818436, 9.396681]}, "properties": {"title": "PROVISION OF SOLAR STREET LIHGTS IN CHANSO COMMUNITY GINDIRI MANGU LGA, PLATEAU STATE", "year": "2019", "type": "SOLAR STREET LIGHT", "type2": "SSL", "status": "COMPLETED", "location": "CHANSO COMMUNITY", "contractor": "MARITIME PROJECT SERVICES LTD", "lot": "C021", "state": "PLATEAU", "state_raw": "PLATEAU"}}, {"type": "Feature", "geometry": {"type": "Point", "coordinates": [9.357317, 9.527893]}, "properties": {"title": "PROCUREMENT/INSTALLATION OF 300KVA TRANSFORMER AT DONG IN JOS NORTH", "year": "2019", "type": "GRID", "type2": "GRID", "status": "COMPLETED", "location": "DONG", "contractor": "DANGATA SERVICES NIGERIA LIMITED", "lot": "D030", "state": "PLATEAU", "state_raw": "PLATEAU"}}, {"type": "Feature", "geometry": {"type": "Point", "coordinates": [9.0851, 9.794076]}, "properties": {"title": "PROVISION AND INSTALLATION OF SOLAR STREET LIGHT AT AMPER TOWN, KANKE LGA PLATEAU STATE", "year": "2019", "type": "SOLAR STREET LIGHT", "type2": "SSL", "status": "COMPLETED", "location": "AMPER", "contractor": "MASH-IDU ASSOCIATES", "lot": "C022", "state": "PLATEAU", "state_raw": "PLATEAU"}}, {"type": "Feature", "geometry": {"type": "Point", "coordinates": [10.101645, 9.717246]}, "properties": {"title": "PROCUREMENT/INSTALLATION OF 300KVA TRANSFORMERS AT  MSNGU/BOKKOS FED. CONSTITUENCY", "year": "2019", "type": "GRID", "type2": "GRID", "status": "COMPLETED", "location": "MSNGU/BOKKOS", "contractor": "BIYAKS BUSINESS LTD", "lot": "D045", "state": "PLATEAU", "state_raw": "PLATEAU"}}, {"type": "Feature", "geometry": {"type": "Point", "coordinates": [9.313557, 8.507808]}, "properties": {"title": "ONGOING ELECTRIFICATION OF KWANDE-NAMU IN PLATEAU STATE", "year": "2019", "type": "GRID", "type2": "GRID", "status": "COMPLETED", "location": "KWANDE-NAMU", "contractor": "BORNO ENGINEERING SUPPLY & TECHNICAL CO. LTD.", "lot": "D002", "state": "PLATEAU", "state_raw": "PLATEAU"}}, {"type": "Feature", "geometry": {"type": "Point", "coordinates": [9.939507, 9.031782]}, "properties": {"title": "ONGOING ELECTRIFICATION OF KURGWI-KWANDE BIAMBIAM - SHIMANKAR, PLATEAU STATE", "year": "2019", "type": "GRID", "type2": "GRID", "status": "COMPLETED", "location": "KURGWI-KWANDE BIAMBIAM - SHIMANKAR", "contractor": "JIBRILLA ENTERPRISES LTD", "lot": "RT004", "state": "PLATEAU", "state_raw": "PLATEAU"}}, {"type": "Feature", "geometry": {"type": "Point", "coordinates": [6.314636, 9.146328]}, "properties": {"title": "PROVISION AND INSTALLATION OF SOLAR STREET LIGHT ACROSS KOTANGORA FEDERAL CONSTITUENCY NIGER STATE.", "year": "2019", "type": "SOLAR STREET LIGHT", "type2": "SSL", "status": "COMPLETED", "location": "KOTANGORA FEDERAL CONSTITUENCY", "contractor": "VIRTUE MEGA SYNERGY LIMITED", "lot": "ZC140", "state": "NIGER", "state_raw": "NIGER"}}, {"type": "Feature", "geometry": {"type": "Point", "coordinates": [4.756205, 9.492978]}, "properties": {"title": "SOLAR POWER STREET LIGHT IN ECOLOGICAL ZONE", "year": "2019", "type": "SOLAR STREET LIGHT", "type2": "SSL", "status": "COMPLETED", "location": "ECOLOGICAL ZONE", "contractor": "PRUDENCY COONCEPT LTD.", "lot": "ZC142", "state": "NIGER", "state_raw": "NIGER"}}, {"type": "Feature", "geometry": {"type": "Point", "coordinates": [7.561459, 7.900282]}, "properties": {"title": "COMPLETION AND CONNECTION OF ELECTRICAL (TRANSFORMER) TO NATIONAL GRID IN OREHI/ADAVI FEDERAL CONSTITUENCY KOGI STATE.", "year": "2019", "type": "GRID", "type2": "GRID", "status": "COMPLETED", "location": "OREHI/ADAVI", "contractor": "WILMIA NIG. LTD.", "lot": "ZD209", "state": "KOGI", "state_raw": "KOGI"}}, {"type": "Feature", "geometry": {"type": "Point", "coordinates": [7.742049, 8.622648]}, "properties": {"title": "PROVISION AND INSTALLATION OF 500KVA TRANSFORMERS IN SELECTED LOCATION IN AWE/DOMA/KEANA LGAS NASARAWA STATE", "year": "2019", "type": "GRID", "type2": "GRID", "status": "COMPLETED", "location": "AWE/DOMA/KEANA LGAS", "contractor": "MAC JONES NIG LTD", "lot": "D047", "state": "NASARAWA", "state_raw": "NASARAWA"}}, {"type": "Feature", "geometry": {"type": "Point", "coordinates": [12.377187, 9.454944]}, "properties": {"title": "REHABILITATION OF INSURGENCY DESTROYED NETWORK AND PROVISION OF SOLAR MINI GRID IN THE NORTH EAST", "year": "2019", "type": "GRID/SOLAR MINI GRID", "type2": "GRID/SMG", "status": "COMPLETED", "location": "MARZAA AND MUNGA VILLAGE", "contractor": "THE WATERFALL TOURIST LIMITED", "lot": "D047", "state": "ADAMAWA", "state_raw": "ADAMAWA"}}, {"type": "Feature", "geometry": {"type": "Point", "coordinates": [12.918807, 9.045759]}, "properties": {"title": "ELECTRIFICATION OF SABERE VILLAGE, GURIN DEVELOPMENT AREA, ADAMAWA STATE", "year": "2019", "type": "GRID", "type2": "GRID", "status": "ONGOING", "location": "SABERE VILLAGE, GURIN DEV.AREA", "contractor": "AMEN PROJECTS LTD.", "lot": "D063", "state": "ADAMAWA", "state_raw": "ADAMAWA"}}, {"type": "Feature", "geometry": {"type": "Point", "coordinates": [9.745884, 10.106621]}, "properties": {"title": "PROVISION OF AND INSTALLAITON OF  TRANSFORMERS, 30 NO. POLES AND CONNECTING TO PHCN SUBSTATION IN JALAM, DAMBAM LGA OF BAUCHI STATE", "year": "2019", "type": "GRID", "type2": "GRID", "status": "COMPLETED", "location": "JAIAM", "contractor": "DAQUIN RESOURCES LIMITED", "lot": "D055", "state": "BAUCHI", "state_raw": "BAUCHI"}}, {"type": "Feature", "geometry": {"type": "Point", "coordinates": [10.546842, 9.970844]}, "properties": {"title": "CONSTRUCTION OF SOLAR MINI GRID IN GAMAWA, GOLOLO AND UDUBO TOWNS IN GAMAWA FED. CONSTITUENCY, BAUCHI STATE", "year": "2019", "type": "SOLAR MINI GRID", "type2": "SMG", "status": "COMPLETED", "location": "GOLOLO, UDUBO TOWN", "contractor": "LOGINE  INTERNATIONAL LIMITED", "lot": "A006", "state": "BAUCHI", "state_raw": "BAUCHI"}}, {"type": "Feature", "geometry": {"type": "Point", "coordinates": [8.937005, 11.037565]}, "properties": {"title": "SUPPLY/INSTALLATION OF SOLAR STREET LIGHTS ACROSS THE 18 WARDS OF GAMAWA FED. CONSTITUENCY, BAUCHI STATE FEDERAL CONSTITUENCY", "year": "2019", "type": "SOLAR STREET LIGHT", "type2": "SSL", "status": "COMPLETED", "location": "GAMAWA FED CONSTITUENCY", "contractor": "FANNY FRANK GLOBAL RESOURCES LIMITED", "lot": "C036", "state": "BAUCHI", "state_raw": "BAUCHI"}}, {"type": "Feature", "geometry": {"type": "Point", "coordinates": [10.177709, 10.481426]}, "properties": {"title": "CABLING AND WIRING OF ALREADY INSTALLED ELECTRIC POLES IN GAMAWA FED. CONSTITUENCY, BAUCHI STATE", "year": "2019", "type": "GRID", "type2": "GRID", "status": "COMPLETED", "location": "GAMAWA FED CONSTITUENCY", "contractor": "OMIZZ VENTURES AND TRADE LIMITED", "lot": "D059", "state": "BAUCHI", "state_raw": "BAUCHI"}}, {"type": "Feature", "geometry": {"type": "Point", "coordinates": [10.597541, 11.764691]}, "properties": {"title": "ELECTICITION, CABLING AND WIRING OF COMMUNITIES IN GAMAWA FED. CONSTITUENCY, BAUCHI STATE", "year": "2019", "type": "GRID", "type2": "GRID", "status": "COMPLETED", "location": "GAMAWA FED CONSTITUENCY", "contractor": "XCREST 360 NIGERIA LIMITED", "lot": "D060", "state": "BAUCHI", "state_raw": "BAUCHI"}}, {"type": "Feature", "geometry": {"type": "Point", "coordinates": [10.267918, 10.14037]}, "properties": {"title": "PROVISION AND INSTALLATION OF SOLAR STREET LIGHT AT MAJIDADI B WARD (KOFAR IDI) STREET, BAUCHI LGA, BAUCHI STATE", "year": "2019", "type": "SOLAR STREET LIGHT", "type2": "SSL", "status": "COMPLETED", "location": "MAJIDADI B WARD (KOFAR IDI)", "contractor": "DANGATTA SERVICES NIGERIA LIMITED", "lot": "C040", "state": "BAUCHI", "state_raw": "BAUCHI"}}, {"type": "Feature", "geometry": {"type": "Point", "coordinates": [9.299264, 10.913186]}, "properties": {"title": "PROVISION/INSTALLATION OF 300KVA TRANSFORMER AT DIRBI, BOGORO LGA, BAUCHI STATE", "year": "2019", "type": "GRID", "type2": "GRID", "status": "COMPLETED", "location": "DIRBI", "contractor": "TALES BUILDING & LOGISTICS LIMITED", "lot": "D064", "state": "BAUCHI", "state_raw": "BAUCHI"}}, {"type": "Feature", "geometry": {"type": "Point", "coordinates": [10.668419, 9.672007]}, "properties": {"title": "PROVISION/INSTALLATION OF SOLAR STREET LIGHTS AT FUTUK, ALKALERI LGA, BAUCHI STATE", "year": "2019", "type": "SOLAR STREET LIGHT", "type2": "SSL", "status": "COMPLETED", "location": "FUTUK", "contractor": "CRYSTAL QUALITY LIMITED", "lot": "C044", "state": "BAUCHI", "state_raw": "BAUCHI"}}, {"type": "Feature", "geometry": {"type": "Point", "coordinates": [9.864076, 10.200049]}, "properties": {"title": "COMPLETION OF ELECTRIFICATION OF TUDUN GAMBO - YOLA, DOKA ITC, YOLA TDN, BIRMA-DOGON IN BAUCHI (FMP&S/4381/VOL61/278)", "year": "2019", "type": "GRID", "type2": "GRID", "status": "COMPLETED", "location": "TUDUN GAMBO, DOKA ITC, YOLA TDN", "contractor": "BLADE INTERNATIONAL GLOBAL SERVICES LIMITED", "lot": "D048", "state": "BAUCHI", "state_raw": "BAUCHI"}}, {"type": "Feature", "geometry": {"type": "Point", "coordinates": [10.44485, 11.823025]}, "properties": {"title": "ELECTRIFICATION OF MOTO VILLAGE IN ZALAU WARD, TORO LGA, BAUCHI STATE", "year": "2019", "type": "GRID", "type2": "GRID", "status": "COMPLETED", "location": "MOTOR VILLAGE", "contractor": "SKY VIEW MULTI TRADING ENTERPRISES LTD.", "lot": "RT005", "state": "BAUCHI", "state_raw": "BAUCHI"}}, {"type": "Feature", "geometry": {"type": "Point", "coordinates": [8.98633, 10.758959]}, "properties": {"title": "ELECTRIFICATION OF DUR-POLCHI IN BAUCHI STATE", "year": "2019", "type": "GRID", "type2": "GRID", "status": "COMPLETED", "location": "DUR-POLCHI", "contractor": "NEWTON PROPERTIES LTD", "lot": "D050", "state": "BAUCHI", "state_raw": "BAUCHI"}}, {"type": "Feature", "geometry": {"type": "Point", "coordinates": [10.762779, 11.337442]}, "properties": {"title": "ELECTRIFICATION OF NAHUTA RAHUTA IN BAUCHI STATE", "year": "2019", "type": "GRID", "type2": "GRID", "status": "COMPLETED", "location": "NAHUTA AND RAUTA", "contractor": "FASAD ENGINEERING LIMITED", "lot": "D052", "state": "BAUCHI", "state_raw": "BAUCHI"}}, {"type": "Feature", "geometry": {"type": "Point", "coordinates": [10.37312, 11.004635]}, "properties": {"title": "ELECTRIFICATION OF AJANGARA, JETAL/AUYUKARI, GUDDU A & B IN BAUCHI STATE", "year": "2019", "type": "GRID", "type2": "GRID", "status": "COMPLETED", "location": "AJANGARA, JETAL/AUYUKARI, GUDDU A&B", "contractor": "P2E TECHNOLOGIES LIMITED", "lot": "D053", "state": "BAUCHI", "state_raw": "BAUCHI"}}, {"type": "Feature", "geometry": {"type": "Point", "coordinates": [14.144492, 12.050039]}, "properties": {"title": "PROVISION AND INSTALLATION OF SOLAR STREET LIGHT AT LAMISULA WARD IN MAIDUGURI FED. CONSTITUENCY, BORNO STATE", "year": "2019", "type": "SOLAR STREET LIGHT", "type2": "SSL", "status": "COMPLETED", "location": "LAMISULA", "contractor": "REMZAK LINK LTD", "lot": "C041", "state": "BORNO", "state_raw": "BORNO"}}, {"type": "Feature", "geometry": {"type": "Point", "coordinates": [13.023911, 10.982862]}, "properties": {"title": "PROVISION AND INSTALLATION OF SOLAR STREET LIGHT AT KWAYA, KUSAR LGA KUTIKI VILLAGE BIU, BORNO STATE", "year": "2019", "type": "SOLAR STREET LIGHT", "type2": "SSL", "status": "COMPLETED", "location": "KUTIKI VILLAGE, KWAYA", "contractor": "BINTAYAH GLOBAL RESOURCES SERVICES LIMITED", "lot": "C042", "state": "BORNO", "state_raw": "BORNO"}}, {"type": "Feature", "geometry": {"type": "Point", "coordinates": [12.307803, 12.381967]}, "properties": {"title": "PROVISION/INSTALLATION OF SOLAR STREET LIGHTS AT GWOZA LGA, BORNO STATE", "year": "2019", "type": "SOLAR STREET LIGHT", "type2": "SSL", "status": "COMPLETED", "location": "GWOZA", "contractor": "JASAK INTERNATIONAL NIGERIA LTD", "lot": "C043", "state": "BORNO", "state_raw": "BORNO"}}, {"type": "Feature", "geometry": {"type": "Point", "coordinates": [13.940601, 11.951808]}, "properties": {"title": "ELECTRIFICATION OF SABONGARI, LAGOS, MATHLIBA, PALATHLABU, GARABULA, DEBA GRIM AXIS IN BORNO STATE", "year": "2019", "type": "GRID", "type2": "GRID", "status": "COMPLETED", "location": "SABON GARI, LAGOS, MATHILBA, PALATHLABU, GARABULA, DEBU GRIM", "contractor": "ZANNY CONSTRUCTION NIG. LTD.", "lot": "D051", "state": "BORNO", "state_raw": "BORNO"}}, {"type": "Feature", "geometry": {"type": "Point", "coordinates": [11.346824, 10.009195]}, "properties": {"title": "PROCUREMENT/INSTALLATION OF 300 KVA/33KV TRANSFORMERS IN VARIOUS LOCATIONS OF YAMALTU/DEBA FED. CONSTITUENCY, GOMBE STATE", "year": "2019", "type": "GRID", "type2": "GRID", "status": "COMPLETED", "location": "YAMALTU/DEBA FED CONSTITUENCY", "contractor": "EL-MULISLA ELECTRICAL & TECHNICAL NIGERIA LTD.", "lot": "D056", "state": "GOMBE", "state_raw": "GOMBE"}}, {"type": "Feature", "geometry": {"type": "Point", "coordinates": [10.863885, 10.088643]}, "properties": {"title": "PROVISION OF SOLAR STREET LIHGTS IN MAITANGLE PALACE STREET BILLIRI, GOMBE STATE", "year": "2019", "type": "SOLAR STREET LIGHT", "type2": "SSL", "status": "COMPLETED", "location": "MAITANGLE PALACE STREET BILLIRI", "contractor": "HAWAU GLOBAL CONCEPT LIMITED", "lot": "C037", "state": "GOMBE", "state_raw": "GOMBE"}}, {"type": "Feature", "geometry": {"type": "Point", "coordinates": [11.22903, 9.769289]}, "properties": {"title": "PROCUREMENT AND INSTALLATION OF 2NOS 300KVA TRANSFORMERS AT MISILLI STREET, DAWAKI, GOMBE STATE", "year": "2019", "type": "GRID", "type2": "GRID", "status": "COMPLETED", "location": "MISLLI STREET", "contractor": "EFTEN GLOBAL RESOURCES NIG LTD.", "lot": "D061", "state": "GOMBE", "state_raw": "GOMBE"}}, {"type": "Feature", "geometry": {"type": "Point", "coordinates": [10.808858, 10.747726]}, "properties": {"title": "PROVISION AND INSTALLATION OF SOLAR STREET LIGHTS AT UNGUWAR SARKIN PAWA, GOMBE LGA", "year": "2019", "type": "SOLAR STREET LIGHT", "type2": "SSL", "status": "COMPLETED", "location": "UNGUWAR SARKIN PAWA", "contractor": "SAM-SMITH GLOBAL COMPANY LIMITED", "lot": "C039", "state": "GOMBE", "state_raw": "GOMBE"}}, {"type": "Feature", "geometry": {"type": "Point", "coordinates": [11.070225, 6.63745]}, "properties": {"title": "PROVISION/INSTALLATION OF SOLAR STREET LIGHTS AT DAMBEKI, DIDAN AND SABON GIDA TUKARA IN GASHA KA/KURMI/SARDAUNA FED. CONSTITUENCY, TARABA STATE", "year": "2019", "type": "SOLAR STREET LIGHT", "type2": "SSL", "status": "COMPLETED", "location": "DAMBEKI, DIDAN AND SABON GIDA TUKARA", "contractor": "JAY JAY BADMUS INVESTMENT LTD", "lot": "C035", "state": "TARABA", "state_raw": "TARABA"}}, {"type": "Feature", "geometry": {"type": "Point", "coordinates": [10.243456, 8.159806]}, "properties": {"title": "CONSTRUCTION OF 40KW SOLAR MINI GRID AT FEDERAL UNIVERSITY WUKARI, TARABA STATE", "year": "2019", "type": "SOLAR MINI GRID", "type2": "SMG", "status": "COMPLETED", "location": "FEDERAL UNIVERSITY WUKARI", "contractor": "PLAIN PROJECT LTD.", "lot": "RT001", "state": "TARABA", "state_raw": "TARABA"}}, {"type": "Feature", "geometry": {"type": "Point", "coordinates": [10.266074, 7.091264]}, "properties": {"title": "PROVISION AND INSTALLATION OF SOLAR HOME SYSTEM IN GWANDA VILLAGE IN KURMI LGA", "year": "2019", "type": "SOLAR HOME SYSTEM", "type2": "SHS", "status": "COMPLETED", "location": "GWANDA VILLAGE", "contractor": "4 PLUS SOLAR ENERGY LIMITED", "lot": "A008", "state": "TARABA", "state_raw": "TARABA"}}, {"type": "Feature", "geometry": {"type": "Point", "coordinates": [10.731738, 8.646417]}, "properties": {"title": "CONSTRUCTION OF SOLAR MINI GRID/STREET LIGHTS IN MAKAMA COMMUNITY, DONGA LGA, TARABA STATE", "year": "2019", "type": "SOLAR MINI GRID", "type2": "SMG", "status": "COMPLETED", "location": "MAKAMA COMMUNITY", "contractor": "AYOKA CO LTD", "lot": "A009", "state": "TARABA", "state_raw": "TARABA"}}, {"type": "Feature", "geometry": {"type": "Point", "coordinates": [11.486108, 8.869405]}, "properties": {"title": "PROVISION OF SOLAR STREET LIHGTS IN ABONGTA STREET TAKUM, TARABA STATE", "year": "2019", "type": "SOLAR STREET LIGHT", "type2": "SSL", "status": "COMPLETED", "location": "ABONGTA", "contractor": "ROYAL HORSE CONTINENTAL SERVICES LIMITED", "lot": "C038", "state": "TARABA", "state_raw": "TARABA"}}, {"type": "Feature", "geometry": {"type": "Point", "coordinates": [11.477022, 9.467155]}, "properties": {"title": "EXTENSION OF ELECTRICITY SUPPLY TO SOME PART OF LAU TOWN IN LAU LGA, TARABA STATE", "year": "2019", "type": "GRID", "type2": "GRID", "status": "COMPLETED", "location": "LAU TOWN", "contractor": "BOLATECH (NIG LTD", "lot": "D062", "state": "TARABA", "state_raw": "TARABA"}}, {"type": "Feature", "geometry": {"type": "Point", "coordinates": [10.275058, 8.811873]}, "properties": {"title": "CONSTRUCTION OF 60KW SOLAR MINI GRIDS IN TAKUM AND USSA", "year": "2019", "type": "SOLAR MINI GRID", "type2": "SMG", "status": "COMPLETED", "location": "KWESATI VILLAGE", "contractor": "B. SOLAR ENERGY LIMITED", "lot": "A005", "state": "TARABA", "state_raw": "TARABA"}}, {"type": "Feature", "geometry": {"type": "Point", "coordinates": [11.214061, 12.269704]}, "properties": {"title": "PROCUREMENT AND INSTALLATION OF SOLAR STREET LIGHTING POLES AT VARIOUS LOCATIONS IN YOBE SOUTH SENATORIAL DISTRICT OF YOBE STATE", "year": "2019", "type": "SOLAR STREET LIGHT", "type2": "SSL", "status": "COMPLETED", "location": "YOBE SOUTH SENATORIAL DISTRICT", "contractor": "KEZMA LINK LIMITED", "lot": "C033", "state": "YOBE", "state_raw": "YOBE"}}, {"type": "Feature", "geometry": {"type": "Point", "coordinates": [11.825353, 11.637335]}, "properties": {"title": "SUPPLY AND INSTALLATION OF 500KVA / 11KVA TRANSFORMERS AT VARIOUS LOCATIONS IN YOBE SOUTH SENATORIAL DISTRICT.", "year": "2019", "type": "GRID", "type2": "GRID", "status": "COMPLETED", "location": "YOBE SOUTH SENATORIAL DISTRICT", "contractor": "ARABS AND PATNERS LIMITED", "lot": "D054", "state": "YOBE", "state_raw": "YOBE"}}, {"type": "Feature", "geometry": {"type": "Point", "coordinates": [11.799151, 12.914899]}, "properties": {"title": "SUPPLY AND INSTALLATION OF OF SOLAR STREET LIGHTS AT TSOHUWAR KASUWA, POTISKUM, YOBE STATE", "year": "2019", "type": "SOLAR STREET LIGHT", "type2": "SSL", "status": "COMPLETED", "location": "TSOHUWAR KASUWA POTISKUM", "contractor": "NABSON TECHNICAL SERVICES LIMITED", "lot": "C045", "state": "YOBE", "state_raw": "YOBE"}}, {"type": "Feature", "geometry": {"type": "Point", "coordinates": [11.509655, 12.771874]}, "properties": {"title": "ONGOING ELECTRIFICATION OF DARIN VILLAGE NANGERE LGA", "year": "2019", "type": "GRID", "type2": "GRID", "status": "COMPLETED", "location": "DARIN VILLAGE", "contractor": "SEACOF ENGINEERING SERVICES LTD", "lot": "D065", "state": "YOBE", "state_raw": "YOBE"}}, {"type": "Feature", "geometry": {"type": "Point", "coordinates": [10.220293, 11.77424]}, "properties": {"title": "RURAL ELECTRIFICATION OF RIGA VILLAGE OF TORO FEDERAL CONSTITUENCY BAUCHI STATE.", "year": "2019", "type": "GRID", "type2": "GRID", "status": "COMPLETED", "location": "RIGA VILLAGE", "contractor": "TRUE EVER END NIG. LTD", "lot": "ZD210", "state": "BAUCHI", "state_raw": "BAUCHI"}}, {"type": "Feature", "geometry": {"type": "Point", "coordinates": [11.743086, 7.06748]}, "properties": {"title": "SOLAR STREET LIGHTS BUKARI/IBI TARABA STATE", "year": "2019", "type": "SOLAR STREET LIGHT", "type2": "SSL", "status": "COMPLETED", "location": "WUKARI/IBI", "contractor": "NICKYNATH INTEGRATED CONCEPTS LIMITED", "lot": "ZC141", "state": "TARABA", "state_raw": "TARABA"}}, {"type": "Feature", "geometry": {"type": "Point", "coordinates": [11.264753, 11.182619]}, "properties": {"title": "RURAL ELECTRIFICATION IN YUNUSARI KARGI 11KM ROAD YOBE STATE", "year": "2019", "type": "GRID", "type2": "GRID", "status": "COMPLETED", "location": "YUNUSARI KARGI", "contractor": "ABOUS GLOBAL SOLUTIONS LTD", "lot": "ZD211", "state": "YOBE", "state_raw": "YOBE"}}, {"type": "Feature", "geometry": {"type": "Point", "coordinates": [9.860966, 12.531692]}, "properties": {"title": "ONGOING PROCUREMENT/INSTALLATION OF 300 KVA TRANSFORMERS IN SOME COMMUNITIES OF GUMEL/GAGARAWA/MAI GATARI/SULE TANKARKAR FED. CONSTITUENCY, JIGAWA STATE", "year": "2019", "type": "GRID", "type2": "GRID", "status": "COMPLETED", "location": "GUMEL/GAGARAWA/MAI GATARI/SULE TANKARKAR FED. CONSTITUENCY", "contractor": "FUSE ENGINEERING LIMITED", "lot": "D083", "state": "JIGAWA", "state_raw": "JIGAWA"}}, {"type": "Feature", "geometry": {"type": "Point", "coordinates": [9.981042, 11.179592]}, "properties": {"title": "PROVISION/INSTALLATION OF 300KVA TRANSFORMERS AT GWARAM FED. CONSTITUENCY, JIGAWA STATE", "year": "2019", "type": "GRID", "type2": "GRID", "status": "COMPLETED", "location": "GWARAM", "contractor": "MMC AARON NIGERIA LIMITED", "lot": "D085", "state": "JIGAWA", "state_raw": "JIGAWA"}}, {"type": "Feature", "geometry": {"type": "Point", "coordinates": [6.942662, 10.709824]}, "properties": {"title": "SUPPLY AND INSTALLATION OF OF SOLAR STREET LIGHTS AT UNGUWAR MAKAMA HOSPITAL RD NEAR EMIR'S PALACE, SAMINAKA, LERE LGA", "year": "2019", "type": "SOLAR STREET LIGHT", "type2": "SSL", "status": "COMPLETED", "location": "UNGUWAR MAKAMA SAMINAKA", "contractor": "MAXELLE GLOBAL SERVICES LTD.", "lot": "C071", "state": "KADUNA", "state_raw": "KADUNA"}}, {"type": "Feature", "geometry": {"type": "Point", "coordinates": [7.97491, 10.583392]}, "properties": {"title": "PROVISION/INSTALLATION OF 300KVA, 33/0.415kV DISTRIBUTION TRANSFORMERS AT FADAN-KAJE ST. MARY'S IN ZANGO KATAF, LGA OF KADUNA STATE", "year": "2019", "type": "GRID", "type2": "GRID", "status": "COMPLETED", "location": "FADAN KAJE ST MARY'S", "contractor": "JASAK INTERNATIONAL NIGERIA LTD", "lot": "D074", "state": "KADUNA", "state_raw": "KADUNA"}}, {"type": "Feature", "geometry": {"type": "Point", "coordinates": [6.370034, 10.949879]}, "properties": {"title": "ELECTRIFICATION OF KUFAI MADAKIYA COMMUNITY, ZANGO KATAF LGA, KADUNA STATE", "year": "2019", "type": "GRID", "type2": "GRID", "status": "COMPLETED", "location": "KUFAI MADAKIYA", "contractor": "AZEEZEH INTEGRATED SERVICES LIMITED", "lot": "D075", "state": "KADUNA", "state_raw": "KADUNA"}}, {"type": "Feature", "geometry": {"type": "Point", "coordinates": [8.410207, 10.515688]}, "properties": {"title": "PROCUREMENT/INSTALLATION OF 300KVA TRANSFORMERS AT JEMA'A/SANGA FED. CONSTITUENCY, KADUNA STATE", "year": "2019", "type": "GRID", "type2": "GRID", "status": "COMPLETED", "location": "JEMA'A/SANGA FEDERAL CONST", "contractor": "ELFIN RESOURCES LTD", "lot": "D077", "state": "KADUNA", "state_raw": "KADUNA"}}, {"type": "Feature", "geometry": {"type": "Point", "coordinates": [8.225766, 9.876757]}, "properties": {"title": "ONGOING ENHANCED POWER GENERATION FOR COMMUNITIES IN CHIKUN AND KAJURU FED. CONSTITUENCY, KADUNA STATE", "year": "2019", "type": "GRID", "type2": "GRID", "status": "COMPLETED", "location": "IDO, GWANIN GORA AND HIGH COST NARAYI", "contractor": "FESOL UNIQUE CONCEPT NIG. LTD", "lot": "D084", "state": "KADUNA", "state_raw": "KADUNA"}}, {"type": "Feature", "geometry": {"type": "Point", "coordinates": [7.47153, 9.861686]}, "properties": {"title": "ONGOING ELECTRIFICATION/INSTALLATION OF 300KVA TRANSFORMER AT BABAN-SAURA AND U/MARUBA IN KAKAU/KUJAMA DISTRICT, CHIKUN LGA, KADUNA STATE", "year": "2019", "type": "GRID", "type2": "GRID", "status": "COMPLETED", "location": "BABAN-SAURA, U/MARUBA", "contractor": "EJADAMS ESSENCE LIMITED", "lot": "D094", "state": "KADUNA", "state_raw": "KADUNA"}}, {"type": "Feature", "geometry": {"type": "Point", "coordinates": [8.40825, 11.075668]}, "properties": {"title": "GRID EXTENSION FROM KYAYYA TO KANOK IN JEMA'A LGA, KADUNA STATE", "year": "2019", "type": "GRID", "type2": "GRID", "status": "COMPLETED", "location": "KYAYYA, KANOK", "contractor": "OGAM INTEGRATED SERVICES NIGERIA LTD", "lot": "D098", "state": "KADUNA", "state_raw": "KADUNA"}}, {"type": "Feature", "geometry": {"type": "Point", "coordinates": [7.824896, 11.091758]}, "properties": {"title": "GRID EXTENSION FROM KWASSU TO UNGWAN GWANDA IN SANGA LGA, KADUNA STATE", "year": "2019", "type": "GRID", "type2": "GRID", "status": "COMPLETED", "location": "KWASSU TO UNGWAN GWANDA", "contractor": "BASALA WORLD WIDE", "lot": "D099", "state": "KADUNA", "state_raw": "KADUNA"}}, {"type": "Feature", "geometry": {"type": "Point", "coordinates": [8.02042, 10.099527]}, "properties": {"title": "PROVISION/INSTALLATION OF 300KVA/33 KV TRANSFORMER AT  JEMA'A/SANGA FED CONSTITUENCY", "year": "2019", "type": "GRID", "type2": "GRID", "status": "COMPLETED", "location": "JEMA'A/SANGA", "contractor": "RAMAX RESOURCES LIMITED", "lot": "D100", "state": "KADUNA", "state_raw": "KADUNA"}}, {"type": "Feature", "geometry": {"type": "Point", "coordinates": [8.092624, 11.436867]}, "properties": {"title": "SUPPLY AND INSTALLATION OF SOLAR STREET LIGHTS IN SELLECTED LOCATIONS OF KADUNA SOUTH SENATORIAL DISTRICT", "year": "2019", "type": "SOLAR STREET LIGHT", "type2": "SSL", "status": "COMPLETED", "location": "KADUNA SOUTH", "contractor": "BALFORT INTERNATIONAL INVESTMENT LIMITED", "lot": "C047", "state": "KADUNA", "state_raw": "KADUNA"}}, {"type": "Feature", "geometry": {"type": "Point", "coordinates": [6.828508, 11.040009]}, "properties": {"title": "INSTALLATION OF SOLAR STREET LIGHTS  AT KWOI,NOK AND ANKUNG AND COMPLETION OF ONGOING ELECTRIFICATION PROJECTS IN JABA LGA OF KADUNA STATE", "year": "2019", "type": "SOLAR STREET LIGHT", "type2": "SSL", "status": "COMPLETED", "location": "KWOI, NOK AND ANKUNG", "contractor": "SPEC-ON GLOBAL LINKS LTD", "lot": "C049", "state": "KADUNA", "state_raw": "KADUNA"}}, {"type": "Feature", "geometry": {"type": "Point", "coordinates": [7.559343, 10.220673]}, "properties": {"title": "ONGOING PROVISION/INSTALLATION OF SOLAR STREET LIGHT IN SOME VILLAGES OF SOBA FED. CONSTITUENCY, KADUNA STATE", "year": "2019", "type": "SOLAR STREET LIGHT", "type2": "SSL", "status": "COMPLETED", "location": "VILLAGES OF SOBA FED. CONSTITUENCY", "contractor": "UBIRAK LIMITED", "lot": "C054", "state": "KADUNA", "state_raw": "KADUNA"}}, {"type": "Feature", "geometry": {"type": "Point", "coordinates": [7.279652, 10.845275]}, "properties": {"title": "PROVISION AND INSTALLATION OF SOLAR STREET LIGHTS IN UNGWAN MAIGERO EXTENSION, KADUNA", "year": "2019", "type": "SOLAR STREET LIGHT", "type2": "SSL", "status": "COMPLETED", "location": "UNGWAN MAIGERO EXTENSION", "contractor": "SAMLIK ENGINEERING SERVICES LTD", "lot": "C057", "state": "KADUNA", "state_raw": "KADUNA"}}, {"type": "Feature", "geometry": {"type": "Point", "coordinates": [6.823909, 11.14981]}, "properties": {"title": "PROVISION AND INSTALLATION OF SOLAR STREET LIGHT AT LAGOS STREET, WUSHISHI/OGBOMOSHO RD IN  KADUNA LGA, KADUNA STATE", "year": "2019", "type": "SOLAR STREET LIGHT", "type2": "SSL", "status": "COMPLETED", "location": "LAGOS STREET, WUSHISHI/OGBOMOSHO ROAD", "contractor": "MT CIVIL ENGINEERING LIMITED", "lot": "C059", "state": "KADUNA", "state_raw": "KADUNA"}}, {"type": "Feature", "geometry": {"type": "Point", "coordinates": [8.356878, 9.219322]}, "properties": {"title": "PROVISION AND INSTALLATION OF SOLAR STREET LIGHT AT MAKARFI/KUDUN, KADUNA STATE", "year": "2019", "type": "SOLAR STREET LIGHT", "type2": "SSL", "status": "COMPLETED", "location": "MAKAFI/KUDAN", "contractor": "BROOKS CONSOLIDATED INVESTMENT LIMITED", "lot": "C062", "state": "KADUNA", "state_raw": "KADUNA"}}, {"type": "Feature", "geometry": {"type": "Point", "coordinates": [8.495636, 9.615993]}, "properties": {"title": "PROVISION AND INSTALLATION OF SOLAR STREET LIGHT AT SIR PATRICK IBRAHIM YAKOWA ROAD IN KHAMA COMMUNITY OF FADAN KAGOMA, JEMA'A LGA, KADUNA STATE", "year": "2019", "type": "SOLAR STREET LIGHT", "type2": "SSL", "status": "COMPLETED", "location": "KHAMA COMMUNITY", "contractor": "GLORIOUS DEEDS NIGERIA LTD", "lot": "C064", "state": "KADUNA", "state_raw": "KADUNA"}}, {"type": "Feature", "geometry": {"type": "Point", "coordinates": [7.359073, 10.54072]}, "properties": {"title": "RURAL ELECTRIFICATION IN TOHU, DUFADUFA AND UNGUWAN BARASHI IN SABON GARI LGA, KADUNA STATE", "year": "2019", "type": "GRID", "type2": "GRID", "status": "COMPLETED", "location": "TOHU DUFADUFA AND UNGUWAR BARASHI", "contractor": "HALSWAY CONSULTING LIMITED", "lot": "D068", "state": "KADUNA", "state_raw": "KADUNA"}}, {"type": "Feature", "geometry": {"type": "Point", "coordinates": [8.412005, 9.459486]}, "properties": {"title": "PROVISION/INSTALLATION OF SOLAR STREET LIGHT AT JAGINDI TASHA, JEMA'A LGA, KADUNA STATE", "year": "2019", "type": "SOLAR STREET LIGHT", "type2": "SSL", "status": "COMPLETED", "location": "JAGINDI TASHA", "contractor": "SATANDER BUSINESS SOLUTIONS LTD", "lot": "C077", "state": "KADUNA", "state_raw": "KADUNA"}}, {"type": "Feature", "geometry": {"type": "Point", "coordinates": [8.032623, 12.187887]}, "properties": {"title": "SUPPLY AND INSTALLATION OF OF SOLAR STREET LIGHTS AT CHARANCHI GABAS, LAYIN COUNCILLOR COMMUNITY, DORAYI, KUMBOTSO LGA, KANO STATE", "year": "2019", "type": "SOLAR STREET LIGHT", "type2": "SSL", "status": "COMPLETED", "location": "CHARANCHI GABAS, LAYIN COUNCILLOR, DORAY", "contractor": "FN & ASSOCIATES LIMITED", "lot": "C076", "state": "KANO", "state_raw": "KANO"}}, {"type": "Feature", "geometry": {"type": "Point", "coordinates": [8.24869, 12.357914]}, "properties": {"title": "ONGOING ELECTRIFICATION OF MAZARE IN WUDIL LGA, KANO STATE", "year": "2019", "type": "GRID", "type2": "GRID", "status": "COMPLETED", "location": "MAZARE", "contractor": "MCACINS ATELIER INTERGRATED NIGERIA LIMITED", "lot": "D079", "state": "KANO", "state_raw": "KANO"}}, {"type": "Feature", "geometry": {"type": "Point", "coordinates": [8.856764, 11.112816]}, "properties": {"title": "ONGOING SUPPLY/INSTALLATION OF 200KVA/33/0.415 TRANSFORMER AND SUBSTATION MATERIAL AT TSANYAWA TOWN RELIEF SUBSTATION", "year": "2019", "type": "GRID", "type2": "GRID", "status": "COMPLETED", "location": "TSANYAWA TOWN", "contractor": "YEZNAB INVESTMENT & SERV", "lot": "D080", "state": "KANO", "state_raw": "KANO"}}, {"type": "Feature", "geometry": {"type": "Point", "coordinates": [8.498493, 12.106122]}, "properties": {"title": "ONGOING EXTENSION OF LT SUPPLY AT TSANYAWA UNGUWAR GABAS AND TSANYAWA UNGUWAR YAMMA, TSANYAAWA TOWN, KANO STATE", "year": "2019", "type": "GRID", "type2": "GRID", "status": "COMPLETED", "location": "TSANYAWA UNGUWAR GABAS AND TSANYAWA UNGUWAR YAMMA, TSANYAAWA TOWN", "contractor": "DE GODF ENERGY LIMITED", "lot": "D081", "state": "KANO", "state_raw": "KANO"}}, {"type": "Feature", "geometry": {"type": "Point", "coordinates": [8.838945, 11.874723]}, "properties": {"title": "PROCUREMENT AND INSTALLATION OF 500KVA/11KV TRANSFORMERS AT MANGORON MAHAUTA GAMA QUARTERS AND DAUSAYI TOWN GEZAWA LGA, KANO STATE", "year": "2019", "type": "GRID", "type2": "GRID", "status": "COMPLETED", "location": "MANGORON MAHAUTA GAMA QUARTERS AND DAUSAYI TOWN", "contractor": "SULE SAGMAKK NIGERIA LIMITED", "lot": "D088", "state": "KANO", "state_raw": "KANO"}}, {"type": "Feature", "geometry": {"type": "Point", "coordinates": [8.502274, 12.177788]}, "properties": {"title": "RURAL ELECTRIFICATION OF DUGURAWA RIMIN-GADO LGA, KANO STATE", "year": "2019", "type": "GRID", "type2": "GRID", "status": "COMPLETED", "location": "DUGURAWA", "contractor": "JAMAJI NIGERIA LIMITED", "lot": "D090", "state": "KANO", "state_raw": "KANO"}}, {"type": "Feature", "geometry": {"type": "Point", "coordinates": [8.84093, 11.174524]}, "properties": {"title": "PROCUREMENT AND INSTALLATION OF 300KVA TRANSFORMERS AT DAMBATTA/MAKODA FED. CONSTITUENCY", "year": "2019", "type": "GRID", "type2": "GRID", "status": "COMPLETED", "location": "DANBATTA/MAKODA FEDERAL CONSTITUENCY", "contractor": "AMRON GLOBAL SERVICES LTD.", "lot": "D091", "state": "KANO", "state_raw": "KANO"}}, {"type": "Feature", "geometry": {"type": "Point", "coordinates": [8.655174, 11.518865]}, "properties": {"title": "SUPPLY AND INSTALLATION OF 300KVA TRANSFORMERS AT DAWAKIN/TOFA/RIMIN GADO LGA OF KANO STATE", "year": "2019", "type": "GRID", "type2": "GRID", "status": "COMPLETED", "location": "DANBAZAU A, UNGUWAR RIMI, ZANGON KABA, & KALEKUN FULANI", "contractor": "RASIMTOH NIGERIA LIMITED", "lot": "D096", "state": "KANO", "state_raw": "KANO"}}, {"type": "Feature", "geometry": {"type": "Point", "coordinates": [8.569849, 11.420426]}, "properties": {"title": "ELECTRIFICATION OF BANGI, RIMINGADO LGA, KANO STATE", "year": "2019", "type": "GRID", "type2": "GRID", "status": "COMPLETED", "location": "BANGI", "contractor": "RAFWEL MUNAH NIG LTD", "lot": "D101", "state": "KANO", "state_raw": "KANO"}}, {"type": "Feature", "geometry": {"type": "Point", "coordinates": [8.932177, 11.225201]}, "properties": {"title": "ELECTRIFICATION OF DAN ISAN FULANI AND KANAWA IN KANO STATE", "year": "2019", "type": "GRID", "type2": "GRID", "status": "COMPLETED", "location": "DAN ISAN FULANI AND KANAWA", "contractor": "DAMSAL NIGERIA LIMITED", "lot": "D104", "state": "KANO", "state_raw": "KANO"}}, {"type": "Feature", "geometry": {"type": "Point", "coordinates": [8.85958, 11.101784]}, "properties": {"title": "COMPLETION OF ONGOING 7.5MVA POWER SUB-STATION IN FAGGE FEERAL CONSTITUENCY KANO", "year": "2019", "type": "GRID", "type2": "GRID", "status": "COMPLETED", "location": "RIJIYAN LEMO", "contractor": "BORNO ENGINEERING SUPPLY & TECHNICAL CO. LTD.", "lot": "B004", "state": "KANO", "state_raw": "KANO"}}, {"type": "Feature", "geometry": {"type": "Point", "coordinates": [8.578177, 12.114418]}, "properties": {"title": "PROVISION OF SOLAR STREET LIGHT AT GARUNBABA WARD OF GARUNMALAM LGA IN KANO STATE", "year": "2019", "type": "SOLAR STREET LIGHT", "type2": "SSL", "status": "COMPLETED", "location": "GARUNBABA WARD", "contractor": "JUGGERNAUT INDUSTRIES LIMITED", "lot": "C048", "state": "KANO", "state_raw": "KANO"}}, {"type": "Feature", "geometry": {"type": "Point", "coordinates": [8.491114, 12.036906]}, "properties": {"title": "PROVISION AND INSTALLATION OF SOLAR STREET LIGHT AT JOBE IN TOFA LGA, KANO STATE", "year": "2019", "type": "SOLAR STREET LIGHT", "type2": "SSL", "status": "COMPLETED", "location": "JOBE", "contractor": "CEDAR CREED LIMITED", "lot": "C060", "state": "KANO", "state_raw": "KANO"}}, {"type": "Feature", "geometry": {"type": "Point", "coordinates": [7.278154, 11.634631]}, "properties": {"title": "PROVISION/INSTALLATION OF SOLAR STREET LIGHTS AT DAMARI IN SABUWA LGA, KATSINA STATE", "year": "2019", "type": "SOLAR STREET LIGHT", "type2": "SSL", "status": "COMPLETED", "location": "DAMARI", "contractor": "SUNILAR NIGERIA LIMITED", "lot": "C070", "state": "KATSINA", "state_raw": "KATSINA"}}, {"type": "Feature", "geometry": {"type": "Point", "coordinates": [6.96969, 11.460568]}, "properties": {"title": "PROCUREMENT AND INSTALLATION OF 500KVA TRANSFORMER IN VARIOUS LOCATIONS IN KATSINA NORTH SENATORIAL DISTRICT", "year": "2019", "type": "GRID", "type2": "GRID", "status": "COMPLETED", "location": "KOZA VILLAGE, MAI ADUWA GEIGIMA, GODAI VILLAGE, KWANGALON U/YAMMA VILLAGE,", "contractor": "ALIM AND ASSSOCIATES LTD", "lot": "D071", "state": "KATSINA", "state_raw": "KATSINA"}}, {"type": "Feature", "geometry": {"type": "Point", "coordinates": [7.823922, 13.041364]}, "properties": {"title": "ONGOING ELECTRIFICATION OF UNGUWAR BANMI-UNG SABON GIDA-KANKO-UNGUWAR HAE UNGUWAR SALLAH-GWAGWAYE VILLAGES IN FUNTUA LGA", "year": "2019", "type": "GRID", "type2": "GRID", "status": "COMPLETED", "location": "GWAIGWAYEN DALAMI", "contractor": "D.O INVESTMENT LIMITED", "lot": "D086", "state": "KATSINA", "state_raw": "KATSINA"}}, {"type": "Feature", "geometry": {"type": "Point", "coordinates": [7.308165, 11.598038]}, "properties": {"title": "ONGOING ELECTRIFICATION OF SABO, KATOGE, UNG-BABAN AUDU-UNG ALKASIRN KRI JAM KAURA FAWA UNG-MALAM HAJJI VILLAGES IN DANDUME LGA", "year": "2019", "type": "GRID", "type2": "GRID", "status": "COMPLETED", "location": "SABO, KATOGE, UNG-BABAN AUDU-UNG ALKASIRN KRI JAM KAURA FAWA UNG-MALAM HAJJI VILLAGES IN", "contractor": "DONWEST SPRING CONCEPTS LTD", "lot": "D087", "state": "KATSINA", "state_raw": "KATSINA"}}, {"type": "Feature", "geometry": {"type": "Point", "coordinates": [7.23358, 11.295738]}, "properties": {"title": "REHABILITATION AND COMPLETION OF BURDUGAU AND UNGUWAR GAMBO RURAL ELECTRIFICATION PROJECTS IN MALUNFASHI", "year": "2019", "type": "GRID", "type2": "GRID", "status": "COMPLETED", "location": "BURDUGAU AND UNGUWAR GAMBO", "contractor": "WHITE TIGER VENTURES LIMITED", "lot": "D102", "state": "KATSINA", "state_raw": "KATSINA"}}, {"type": "Feature", "geometry": {"type": "Point", "coordinates": [7.360169, 12.700709]}, "properties": {"title": "PROVISION /INSTALLATION OF SOLAR STREET LIGHTS IN SOME COMMUNITIES IN DAURA SENATORIAL DISTRICT", "year": "2019", "type": "SOLAR STREET LIGHT", "type2": "SSL", "status": "COMPLETED", "location": "DAURA SENATORIAL DISTRICT", "contractor": "VINEZ PROJECTS AND INVESTMENT LTD", "lot": "C046", "state": "KATSINA", "state_raw": "KATSINA"}}, {"type": "Feature", "geometry": {"type": "Point", "coordinates": [7.785324, 12.339637]}, "properties": {"title": "PROVISION/INSTALLATION OF SOLAR STREET LIGHTS AT KANKARA, KANKARA LGA KATSINA STATE", "year": "2019", "type": "SOLAR STREET LIGHT", "type2": "SSL", "status": "COMPLETED", "location": "KANKARA", "contractor": "FLASHY FUNMUI", "lot": "C051", "state": "KATSINA", "state_raw": "KATSINA"}}, {"type": "Feature", "geometry": {"type": "Point", "coordinates": [8.273777, 13.148633]}, "properties": {"title": "PROVISION/INSTALLATION OF SOLAR STREET LIGHTS AT TAFOKI IN FASKARI LGA KATSINA STATE", "year": "2019", "type": "SOLAR STREET LIGHT", "type2": "SSL", "status": "COMPLETED", "location": "TAFOKI", "contractor": "LAPIDEO MULTI SERVICES LIMITED", "lot": "C052", "state": "KATSINA", "state_raw": "KATSINA"}}, {"type": "Feature", "geometry": {"type": "Point", "coordinates": [7.216257, 11.812792]}, "properties": {"title": "PROVISION AND INSTALLATION OF SOLAR STREET LIGHT AT TAMA VILLAGE, BINDAWA LGA, KATSINA STATE", "year": "2019", "type": "SOLAR STREET LIGHT", "type2": "SSL", "status": "COMPLETED", "location": "TAMA VILLAGE", "contractor": "SKYVIEW MULTI TRADING ENTREPRISE LIMITED", "lot": "C061", "state": "KATSINA", "state_raw": "KATSINA"}}, {"type": "Feature", "geometry": {"type": "Point", "coordinates": [7.485598, 11.405329]}, "properties": {"title": "SUPPLY OF TRANSFORMERS TO ELEVEN LGAS IN KATSINA CENTRAL SENATORIAL DISTRICT", "year": "2019", "type": "GRID", "type2": "GRID", "status": "COMPLETED", "location": "DAN MUSA", "contractor": "HUMMINGBIRD PROJECTS & SERVICES LTD", "lot": "D067", "state": "KATSINA", "state_raw": "KATSINA"}}, {"type": "Feature", "geometry": {"type": "Point", "coordinates": [7.559605, 11.685514]}, "properties": {"title": "PROCUREMENT AND INSTALLATION OF TRANSFORMERS AND ACCESSORIES IN EIGHT (8) LGAS OF DAURA SENATORIAL DISTRICT", "year": "2019", "type": "GRID", "type2": "GRID", "status": "COMPLETED", "location": "BAKIN TSOHUWAR KASUWA AND UNGUWAR JIMAI", "contractor": "HENNOCHIM INVESTMENT LTD", "lot": "D069", "state": "KATSINA", "state_raw": "KATSINA"}}, {"type": "Feature", "geometry": {"type": "Point", "coordinates": [4.817132, 10.388886]}, "properties": {"title": "PROVISION AND INSTALLATION OF 500KVA TRANSFORMERS IN KEBBI SENATORIAL DISTRICT OF KEBBI STATE", "year": "2019", "type": "GRID", "type2": "GRID", "status": "COMPLETED", "location": "KEBBI SENATORIAL DISTRICT", "contractor": "ADETA DYNAMIC SERVICES LIMITED", "lot": "D073", "state": "KEBBI", "state_raw": "KEBBI"}}, {"type": "Feature", "geometry": {"type": "Point", "coordinates": [4.424736, 11.154845]}, "properties": {"title": "PROCUREMENT AND INSTALLATION OF 300KVA TRANSFORMERS AT GAYI, DIGGI, MAGARE, BAYAN KARA AREA AND GAWASU IN KALGO/BIRNIN KEBBI LGA", "year": "2019", "type": "GRID", "type2": "GRID", "status": "COMPLETED", "location": "GAYI TOWN", "contractor": "ELECTROMAX ENGINEERING SERVICES LTD", "lot": "D089", "state": "KEBBI", "state_raw": "KEBBI"}}, {"type": "Feature", "geometry": {"type": "Point", "coordinates": [4.375176, 12.295132]}, "properties": {"title": "ELECTRIFICATION OF GABAS DA NANA ASAMA'U GGSS KAMBA, KEBBI STATE", "year": "2019", "type": "GRID", "type2": "GRID", "status": "COMPLETED", "location": "KAMBA", "contractor": "EPPIN FOREST ENGINEERING LTD", "lot": "D092", "state": "KEBBI", "state_raw": "KEBBI"}}, {"type": "Feature", "geometry": {"type": "Point", "coordinates": [4.261671, 13.091005]}, "properties": {"title": "PROCUREMENT AND INSTALLATION OF 300KVA TRANSFORMERS AT GABAS DA NANA ASAMA'U GGSS KAMBA, KEBBI STATE", "year": "2019", "type": "GRID", "type2": "GRID", "status": "COMPLETED", "location": "GGSS KAMBA", "contractor": "ADKAY WORLDWIDE SERVICE LTD.", "lot": "D093", "state": "KEBBI", "state_raw": "KEBBI"}}, {"type": "Feature", "geometry": {"type": "Point", "coordinates": [4.716416, 11.095384]}, "properties": {"title": "PROCUREMENT AND INSTALLATION OF 300KVA TRANSFORMER AT DAM SIDE AND SABUWAR KASUWA OF ZURU IN ZURU LGA, KEBBI STATE", "year": "2019", "type": "GRID", "type2": "GRID", "status": "COMPLETED", "location": "DAM SIDE AND SABUWAR KASUWA", "contractor": "VORSORGE CONCEPT LIMITED", "lot": "D095", "state": "KEBBI", "state_raw": "KEBBI"}}, {"type": "Feature", "geometry": {"type": "Point", "coordinates": [4.357354, 13.170083]}, "properties": {"title": "PROVISION OF SOLAR STREET LIGHTS AT KALGO AND DIGGI TOWN IN KALGO LGA", "year": "2019", "type": "SOLAR STREET LIGHT", "type2": "SSL", "status": "COMPLETED", "location": "KALGO AND DIGGI", "contractor": "MAC JONES NIG LTD", "lot": "C058", "state": "KEBBI", "state_raw": "KEBBI"}}, {"type": "Feature", "geometry": {"type": "Point", "coordinates": [4.955972, 11.407792]}, "properties": {"title": "PROVISION AND INSTALLATION OF SOLAR STREET LIGHT AT DNJUMA-PA, RIKOTO AREA, ZURU LGA, KEBBI STATE", "year": "2019", "type": "SOLAR STREET LIGHT", "type2": "SSL", "status": "COMPLETED", "location": "RIKOTO", "contractor": "FOCAL ENERGY LIMITED", "lot": "C063", "state": "KEBBI", "state_raw": "KEBBI"}}, {"type": "Feature", "geometry": {"type": "Point", "coordinates": [3.986994, 11.244934]}, "properties": {"title": "PROVISION AND INSTALLATION OF SOLAR STREET LIGHT AT ABDULLAHI AMMAN STREET AND DAM SIDE IN ZURU LGA, KEBBI STATE", "year": "2019", "type": "SOLAR STREET LIGHT", "type2": "SSL", "status": "COMPLETED", "location": "ABDULLAHI AMMAN", "contractor": "ALHAJI BELLO MAIKUSA & SONS LIMITED", "lot": "C066", "state": "KEBBI", "state_raw": "KEBBI"}}, {"type": "Feature", "geometry": {"type": "Point", "coordinates": [5.590141, 13.715354]}, "properties": {"title": "SUPPLY AND INSTALLATION OF OF SOLAR STREET LIGHTS AT SOKOTO SOUTH/NORTH FED CONSTITUENCY", "year": "2019", "type": "SOLAR STREET LIGHT", "type2": "SSL", "status": "COMPLETED", "location": "SOKOTO", "contractor": "FORESIGHT INTERNATIONAL NIGERIA LIMITED", "lot": "C072", "state": "SOKOTO", "state_raw": "SOKOTO"}}, {"type": "Feature", "geometry": {"type": "Point", "coordinates": [5.293729, 13.174972]}, "properties": {"title": "SUPPLY AND INSTALLATION OF OF SOLAR STREET LIGHTS AT  KWARE/WAMAKKO FED CONSTITUENCY", "year": "2019", "type": "SOLAR STREET LIGHT", "type2": "SSL", "status": "COMPLETED", "location": "KWARE/WAMAKKO", "contractor": "GABAYA NIGERIA LTD", "lot": "C073", "state": "SOKOTO", "state_raw": "SOKOTO"}}, {"type": "Feature", "geometry": {"type": "Point", "coordinates": [4.854352, 13.496423]}, "properties": {"title": "SUPPLY AND INSTALLATION OF OF SOLAR STREET LIGHTS AT  ARKILA ALONG AUMBI RD LAURA LAYOUT, WAMAKKO LGA, SOKOTO STATE", "year": "2019", "type": "SOLAR STREET LIGHT", "type2": "SSL", "status": "COMPLETED", "location": "ARKILA ALONG AUMBI ROAD LAURA LAYOUT", "contractor": "SMAF ASSOCIATES LIMITED", "lot": "C074", "state": "SOKOTO", "state_raw": "SOKOTO"}}, {"type": "Feature", "geometry": {"type": "Point", "coordinates": [5.595598, 12.433813]}, "properties": {"title": "SUPPLY AND INSTALLATION OF OF SOLAR STREET LIGHTS AT  EASTERN BYE-PASS TO MANA LAYOUT IN MANA AREA, SOKOTO STATE", "year": "2019", "type": "SOLAR STREET LIGHT", "type2": "SSL", "status": "COMPLETED", "location": "MANA", "contractor": "PLATOON GLOBAL INVESTMENT LTD", "lot": "C075", "state": "SOKOTO", "state_raw": "SOKOTO"}}, {"type": "Feature", "geometry": {"type": "Point", "coordinates": [6.470828, 13.565443]}, "properties": {"title": "PROCUREMENT/INSTALLATION OF 300KVA TRANSFORMERS AT SOKOTO NORTH/SOUTH LGA", "year": "2019", "type": "GRID", "type2": "GRID", "status": "COMPLETED", "location": "SOKOTO", "contractor": "TAJKAM GLOBAL SERVICES LIMITED", "lot": "D076", "state": "SOKOTO", "state_raw": "SOKOTO"}}, {"type": "Feature", "geometry": {"type": "Point", "coordinates": [4.861882, 13.391095]}, "properties": {"title": "PROVISION AND INSTALLATION OF SOLAR STREET LIGHTS AT BADON BARADE AND BADON HANYA IN WAMAKO LGA, SOKOTO STATE", "year": "2019", "type": "SOLAR STREET LIGHT", "type2": "SSL", "status": "COMPLETED", "location": "BADON BARADE AND BADON HANYA", "contractor": "2 WHITE DOVE GLOBAL SERVICES LIMITED", "lot": "C056", "state": "SOKOTO", "state_raw": "SOKOTO"}}, {"type": "Feature", "geometry": {"type": "Point", "coordinates": [5.231905, 13.730843]}, "properties": {"title": "PROVISION AND INSTALLATION OF SOLAR STREET LIGHT GABURAWA, GIDA DALO UNGWAN RINA AND KOFAR MATA IN WAMAKO LGA, SOKOTO STATE", "year": "2019", "type": "SOLAR STREET LIGHT", "type2": "SSL", "status": "COMPLETED", "location": "GABURAWA, GIDA DALO UNGWAN RINA AND KOFAR MATA", "contractor": "BEACON CREATIVE IDEAS LIMITED", "lot": "C065", "state": "SOKOTO", "state_raw": "SOKOTO"}}, {"type": "Feature", "geometry": {"type": "Point", "coordinates": [5.479472, 13.463036]}, "properties": {"title": "PROVISION OF SOLAR STREET LIGHTS AT ZAWAYA AND TSOFOWA TASHA IN TAMBUWAL LGA, SOKOTO STATE", "year": "2019", "type": "SOLAR STREET LIGHT", "type2": "SSL", "status": "COMPLETED", "location": "ZUWAYA AND TSOFUWAR TASHA", "contractor": "VENTHCLOE VENTURES LIMITED", "lot": "C069", "state": "SOKOTO", "state_raw": "SOKOTO"}}, {"type": "Feature", "geometry": {"type": "Point", "coordinates": [6.145703, 11.729282]}, "properties": {"title": "ONGOING ELECTRIFICATION OF AUKI-KEKU-BINGI OF BUNGUDU/MARU FED. CONSTITUENCY, ZAMFARA STATE", "year": "2019", "type": "GRID", "type2": "GRID", "status": "COMPLETED", "location": "KEKU", "contractor": "CITADELZ PROJECTS LTD", "lot": "D082", "state": "ZAMFARA", "state_raw": "ZAMFARA"}}, {"type": "Feature", "geometry": {"type": "Point", "coordinates": [6.177523, 12.169323]}, "properties": {"title": "PROVISION/INSTALLATION OF 300KVA TRANSFORMER AT SAMARU AREA, BEHIND KING FAHAD WOMEN AND CHILDREN HOSPITAL, GUSAU ZAMFARA STATE", "year": "2019", "type": "GRID", "type2": "GRID", "status": "COMPLETED", "location": "SAMARU AREA, BEHIND KING FAHAD WOMEN AND CHILDREN HOSPITAL", "contractor": "BEN DANIELS GLOBAL IMPEX LTD", "lot": "D097", "state": "ZAMFARA", "state_raw": "ZAMFARA"}}, {"type": "Feature", "geometry": {"type": "Point", "coordinates": [5.947117, 11.677476]}, "properties": {"title": "PROVISION AND INSTALLATION OF SOLAR STREET LIGHT AT MACCIDO GARBA RD, GADA BIYU-TUNGA AREA, GUSAU-ZAMFARA STATE", "year": "2019", "type": "SOLAR STREET LIGHT", "type2": "SSL", "status": "COMPLETED", "location": "MACCIDO GARBA RD, GADA BIYU-TUNGA AREA", "contractor": "BUKAR AND BOUNTY LIMITED", "lot": "C067", "state": "ZAMFARA", "state_raw": "ZAMFARA"}}, {"type": "Feature", "geometry": {"type": "Point", "coordinates": [7.993077, 11.981074]}, "properties": {"title": "RURAL ELECTRIFICATION PROJECT IN FARAR HULA COMMUNITY OF DOGUWA, LGA KANO STATE", "year": "2019", "type": "GRID", "type2": "GRID", "status": "COMPLETED", "location": "FARAR HULA COMMUNITY", "contractor": "NICKYNATH INTEGRATED CONCEPTS LIMITED", "lot": "ZD212", "state": "KANO", "state_raw": "KANO"}}, {"type": "Feature", "geometry": {"type": "Point", "coordinates": [5.035682, 10.839223]}, "properties": {"title": "RE-ACTIVATION OF SURU-KAWARA-GIRO ELECTRIFICATION PROJECT IN SURU/BAGUDO FEDERAL CONSTITUENCY KEBBI STATE", "year": "2019", "type": "GRID", "type2": "GRID", "status": "COMPLETED", "location": "SURU-KAWARA-GIRO", "contractor": "ZAREMS TECHNOLOGY", "lot": "ZD213", "state": "KEBBI", "state_raw": "KEBBI"}}, {"type": "Feature", "geometry": {"type": "Point", "coordinates": [5.689685, 11.321823]}, "properties": {"title": "ELECTRIFICATION OF ZANGA KASHEN AREA ZURU/FAKAI/SAKABA/WASAGU FEDERAL CONSTITUENCY", "year": "2019", "type": "GRID", "type2": "GRID", "status": "COMPLETED", "location": "ZANGA KASHEN AREA ZURU/FAKAI/SAKABA/WASAGU", "contractor": "SAVVY STEEL CONSTRUCTION LIMITED", "lot": "ZD214", "state": "KEBBI", "state_raw": "KEBBI"}}, {"type": "Feature", "geometry": {"type": "Point", "coordinates": [8.79358, 12.235121]}, "properties": {"title": "SUPPLY AND INSTALLATION OF 33/11 1000KVA TRANSFORMER IN NASARAWA FEDERAL CONSTITUENCY, KANO STATE", "year": "2019", "type": "GRID", "type2": "GRID", "status": "COMPLETED", "location": "NASARAWA FEDERAL CONSTITUENCY", "contractor": "COSMOVIEW GLOBAL SERVICES LIMITED", "lot": "D066", "state": "KANO", "state_raw": "KANO"}}, {"type": "Feature", "geometry": {"type": "Point", "coordinates": [7.58652, 5.379414]}, "properties": {"title": "UPGRADE OF UMUODU UMUAKWU RURAL ELECTRIFICATION PROJECTS IN ISIALANGWA NORTH LGA OF ABIA STATE", "year": "2019", "type": "GRID", "type2": "GRID", "status": "COMPLETED", "location": "UMUODU UMUAKWU", "contractor": "RASOLAK SERVICES NIGERIA LIMITED", "lot": "D110", "state": "ABIA", "state_raw": "ABIA"}}, {"type": "Feature", "geometry": {"type": "Point", "coordinates": [7.428013, 5.667143]}, "properties": {"title": "EXTENSION OF ELECTRICITY AND INSTALLATION OF\nTRANSFORMERS IN COMMUNITIES IN ABIA SOUTH \nSENATORIAL DISTRICT (OBINGWA, ABA NORTH, \nABA SOUTH, UGWUNAGBO, UKWA WEST AND \nUKWA EAST LGAS)", "year": "2019", "type": "GRID", "type2": "GRID", "status": "COMPLETED", "location": "COMMUNITIES IN ABIA SOUTH \nSENATORIAL DISTRICT", "contractor": "I.C WORLD INVESTMENT COMPANY LIMITED", "lot": "D111", "state": "ABIA", "state_raw": "ABIA"}}, {"type": "Feature", "geometry": {"type": "Point", "coordinates": [7.463073, 5.20824]}, "properties": {"title": "SUPPLY AND INSTALLATION OF SOLAR POWERED \nSTREET IN COMMUNITIES IN ABIA SOUTH SENATORIAL DISTRICT (OBINGWA, ABA NORTH, ABA SOUTH,  UGWUNAGBO, UKWA WEST AND UKWA EAST LGAS)", "year": "2019", "type": "SOLAR STREET LIGHT", "type2": "SSL", "status": "COMPLETED", "location": "OBINGWA, ABA NORTH, ABA SOUTH,  UGWUNAGBO, UKWA WEST AND UKWA EAST", "contractor": "NITUZ ENGINEERING SERVICES LIMITED", "lot": "C078", "state": "ABIA", "state_raw": "ABIA"}}, {"type": "Feature", "geometry": {"type": "Point", "coordinates": [7.749574, 5.748537]}, "properties": {"title": "INSTALLATION OF 20.8 KWP MINI GRID IN UMUKEGBE COMMUNITY OBINALO NGODO UMUNEOCHI LGA, ABIA NORTH SENATORIAL DISTRICT ABIA STATE", "year": "2019", "type": "SOLAR MINI GRID", "type2": "SMG", "status": "COMPLETED", "location": "OBINALO NGODO", "contractor": "SANDRICK CIVIL & ELECTRICAL SERV.LTD", "lot": "A010", "state": "ABIA", "state_raw": "ABIA"}}, {"type": "Feature", "geometry": {"type": "Point", "coordinates": [7.389786, 5.27924]}, "properties": {"title": "PROVISION AND INSTALLATION OF TRANSFORMERS IN IHECHIOWA, AKOLI, UTURU, OROR AROCHUKWU, NTALAKWU, AKANU OHAFIA, OKAMU OHAFIA, ACHA ISUIKWUATO, AND ABIRIBA IN ABIA NORTH SENATORIAL DISTRICT.", "year": "2019", "type": "GRID", "type2": "GRID", "status": "COMPLETED", "location": "IHECHIOWA, AKOLI, UTURU, OROR AROCHUKWU, NTALAKWU, AKANU OHAFIA, OKAMU OHAFIA, ACHA ISUIKWUATO, AND ABIRIBA", "contractor": "AIMAMA WORLDWIDE LIMITED", "lot": "D112", "state": "ABIA", "state_raw": "ABIA"}}, {"type": "Feature", "geometry": {"type": "Point", "coordinates": [7.620335, 5.788952]}, "properties": {"title": "COMPLETION OF ON-GOING RURAL ELECTRIFICATION PROJECTS IN THE FOLLOWING COMMUNITIES IN ABIA NORTH SENATORIAL DISTRICT ATAN ABAM, LOKPA UMUNNEOCHI, ELUAMA ISUIKWUATO, OKAGWA ITEM, NDIAWA UBIBIA, NDIAGWU ABAM, OZARA, UMUAQUA", "year": "2019", "type": "GRID", "type2": "GRID", "status": "COMPLETED", "location": "ATAN ABAM, LOKPA UMUNNEOCHI, ELUAMA ISUIKWUATO, OKAGWA ITEM, NDIAWA UBIBIA, NDIAGWU ABAM, OZARA, UMUAQUA", "contractor": "PURE ACCESS IT LIMITED", "lot": "D113", "state": "ABIA", "state_raw": "ABIA"}}, {"type": "Feature", "geometry": {"type": "Point", "coordinates": [7.28542, 4.918173]}, "properties": {"title": "PROVISION OF SOLAR STREET LIGHTS IN AMORJI IN ABIA CENTRAL SENATORIAL DISTRICT", "year": "2019", "type": "SOLAR STREET LIGHT", "type2": "SSL", "status": "COMPLETED", "location": "AMORJI", "contractor": "ARCHWORKS NIG. LTD.", "lot": "C079", "state": "ABIA", "state_raw": "ABIA"}}, {"type": "Feature", "geometry": {"type": "Point", "coordinates": [7.878249, 5.578065]}, "properties": {"title": "EXTENSION OF ELECTRICITY IN NDI AHUMA AND NDI AGWU ABAM IN AROCHUKWU / OHAFIA FEDERAL CONSTITUENCY OF ABIA STATE.", "year": "2019", "type": "GRID", "type2": "GRID", "status": "COMPLETED", "location": "NDI AHUMA, NDI AGWU ABAM", "contractor": "FLEX INFOTECH LIMITED", "lot": "D115", "state": "ABIA", "state_raw": "ABIA"}}, {"type": "Feature", "geometry": {"type": "Point", "coordinates": [7.345346, 5.935771]}, "properties": {"title": "PROCUREMENT AND INSTALLATION OF SOLAR POWER STREET LIGHTS AT EGBELU-ABAYI ROADS OF OSISIOMA NGWA LGA OF ABIA STATE.", "year": "2019", "type": "SOLAR STREET LIGHT", "type2": "SSL", "status": "COMPLETED", "location": "EGBELU-ABAYI", "contractor": "FONSOT GLOBAL SERVICES", "lot": "C083", "state": "ABIA", "state_raw": "ABIA"}}, {"type": "Feature", "geometry": {"type": "Point", "coordinates": [7.356467, 5.133391]}, "properties": {"title": "PROVISION AND INSTALLATION OF SOLAR STREET LIGHTS TO COMMUNITIES IN NKWANU / UMUAHIA NOTH / SOUTH FEDERAL CONSTITUENCY OF ABIA STATE.", "year": "2019", "type": "SOLAR STREET LIGHT", "type2": "SSL", "status": "COMPLETED", "location": "NKWANU / UMUAHIA NOTH / SOUTH FEDERAL CONSTITUENCY", "contractor": "KHILASH OIL NIGERIA LIMITED", "lot": "C084", "state": "ABIA", "state_raw": "ABIA"}}, {"type": "Feature", "geometry": {"type": "Point", "coordinates": [7.903938, 5.648724]}, "properties": {"title": "PROVISION/ INSTALLATION OF SOLAR STREET LIGHTS AT AMIZI IKWUANO LGA (ONGOING) OF ABIA STATE", "year": "2019", "type": "SOLAR STREET LIGHT", "type2": "SSL", "status": "COMPLETED", "location": "", "contractor": "AYINKE GLOBAL SERVICES LTD", "lot": "C086", "state": "ABIA", "state_raw": "ABIA"}}, {"type": "Feature", "geometry": {"type": "Point", "coordinates": [7.433938, 5.538845]}, "properties": {"title": "PROCUREMENT/INSTALLATION OF 500KVA/33KV LINE TRANSFORMERS IN IKWUANO/UMUAHIA NORTH/SOUTH FED. CONSTITUENCY", "year": "2019", "type": "GRID", "type2": "GRID", "status": "COMPLETED", "location": "IKWUANO/UMUAHIA NORTH/SOUTH FED. CONSTITUENCY", "contractor": "SUREZ GLOBAL NIG. LTD", "lot": "D125", "state": "ABIA", "state_raw": "ABIA"}}, {"type": "Feature", "geometry": {"type": "Point", "coordinates": [7.310147, 5.291263]}, "properties": {"title": "PROVISION/INSTALLATION OF SOLAR STREET LIGHTS AT BENDE FED. CONSTITUENCY, ABIA STATE", "year": "2019", "type": "SOLAR STREET LIGHT", "type2": "SSL", "status": "COMPLETED", "location": "BENDE FED. CONSTITUENCY", "contractor": "VICJOSH PROJECTS INVESTMENT CO. LTD", "lot": "C088", "state": "ABIA", "state_raw": "ABIA"}}, {"type": "Feature", "geometry": {"type": "Point", "coordinates": [7.625406, 5.523273]}, "properties": {"title": "ENHANCEMENT OF POWER SUPPLY IN AROCHUKWU/OHAFIA FED. CONSTITUENCY", "year": "2019", "type": "GRID", "type2": "GRID", "status": "COMPLETED", "location": "AROCHUKWU/OHAFIA FED CONSTITUENCY", "contractor": "AABOWA AND COMPANY (NIGERIA) LIMITED", "lot": "D126", "state": "ABIA", "state_raw": "ABIA"}}, {"type": "Feature", "geometry": {"type": "Point", "coordinates": [7.72173, 5.730557]}, "properties": {"title": "PROVISION/INSTALLATION OF SOLAR STREET LIGHTS AT EGBELU-ABAYI ROAD, OSISIOMA LGA, ABIA STATE", "year": "2019", "type": "SOLAR STREET LIGHT", "type2": "SSL", "status": "COMPLETED", "location": "EGBELU-ABAYI", "contractor": "ENFIN ELECTRIQUE LIMITED", "lot": "C090", "state": "ABIA", "state_raw": "ABIA"}}, {"type": "Feature", "geometry": {"type": "Point", "coordinates": [7.680129, 5.579506]}, "properties": {"title": "ELECTRIFICATION OF AKIRIKA-OBU, UKWA EAST LGA, ABIA STATE", "year": "2019", "type": "GRID", "type2": "GRID", "status": "COMPLETED", "location": "AKIRIKA-OBU,", "contractor": "CLIVEDEN INTEGRATED BUSINESS LIMITED", "lot": "D129", "state": "ABIA", "state_raw": "ABIA"}}, {"type": "Feature", "geometry": {"type": "Point", "coordinates": [7.714933, 5.701586]}, "properties": {"title": "PROVISION/INSTALLATION OF SOLAR STREET LIGHT AT EBEM OGUGU AND NDI AGHO AUTONOMOUS COMMUNITIES OF ABIA STATE", "year": "2019", "type": "SOLAR STREET LIGHT", "type2": "SSL", "status": "COMPLETED", "location": "EBEM OGUGU AND NDI AGHO AUTONOMOUS COMMUNITIES", "contractor": "WHYKAY GLOBAL SERVICES LTD", "lot": "C092", "state": "ABIA", "state_raw": "ABIA"}}, {"type": "Feature", "geometry": {"type": "Point", "coordinates": [7.514513, 5.529085]}, "properties": {"title": "PROVISION AND INSTALLATION OF SOLAR STREET LIGHTS AT OGBOKO, ABIA STATE", "year": "2019", "type": "SOLAR STREET LIGHT", "type2": "SSL", "status": "COMPLETED", "location": "OGBOKO", "contractor": "G.U EBECO INDUSTRIES LIMITED", "lot": "C098", "state": "ABIA", "state_raw": "ABIA"}}, {"type": "Feature", "geometry": {"type": "Point", "coordinates": [7.290204, 4.983085]}, "properties": {"title": "PROVISION/INSTALLATION OF SOLAR STREET LIGHT AT ABA NORTH/SOUTH FED. CONSTITUENCY, ABIA STATE", "year": "2019", "type": "SOLAR STREET LIGHT", "type2": "SSL", "status": "COMPLETED", "location": "ABA NORTH/SOUTH FED. CONSTITUENCY", "contractor": "DE GODF ENERGY LIMITED", "lot": "C105", "state": "ABIA", "state_raw": "ABIA"}}, {"type": "Feature", "geometry": {"type": "Point", "coordinates": [7.823817, 5.732865]}, "properties": {"title": "PROCUREMENT/INSTALLATION OF 500KVA/33KV TRANSFORMERS AT ABA NORTH/SOUTH FED. CONSTITUENCY", "year": "2019", "type": "GRID", "type2": "GRID", "status": "COMPLETED", "location": "", "contractor": "SHERIF ENGINEERING & CONSTRUCTION CO.LIMITED", "lot": "D143", "state": "ABIA", "state_raw": "ABIA"}}, {"type": "Feature", "geometry": {"type": "Point", "coordinates": [7.428144, 4.962351]}, "properties": {"title": "SUPPLY AND INSTALLATION (REPLACEMENT) OF TRANSFORMER AT AZUMIRI IKWUANO LGA, ABIA STATE", "year": "2019", "type": "GRID", "type2": "GRID", "status": "COMPLETED", "location": "AZUMIRI IKWUANO", "contractor": "4-DIGIT ENGINEERING AND CONSULTING LIMITED", "lot": "D144", "state": "ABIA", "state_raw": "ABIA"}}, {"type": "Feature", "geometry": {"type": "Point", "coordinates": [7.451033, 5.786709]}, "properties": {"title": "SUPPLY /INSTALLATION OF 10 NOS OF 500KVA TRANSFORMERS IN ABA NORTH/SOUTH FED. CONST. ABIA STATE", "year": "2019", "type": "GRID", "type2": "GRID", "status": "COMPLETED", "location": "ABA NORTH/SOUTH FED. CONST", "contractor": "REALYEM-CIA CONSULT", "lot": "D105", "state": "ABIA", "state_raw": "ABIA"}}, {"type": "Feature", "geometry": {"type": "Point", "coordinates": [6.936457, 6.40276]}, "properties": {"title": "SUPPLY AND INSTALLATION OF SOLAR STREET LIGHTS AT VARIOUS LOCATIONS IN ANAMBRA NORTH SENATORIAL DISTRICT, ANAMBRA STATE.", "year": "2019", "type": "SOLAR STREET LIGHT", "type2": "SSL", "status": "COMPLETED", "location": "ANAMBRA NORTH SENATORIAL DISTRICT,", "contractor": "DESOVO TECHNOLOGIES LIMITED", "lot": "C080", "state": "ANAMBRA", "state_raw": "ANAMBRA"}}, {"type": "Feature", "geometry": {"type": "Point", "coordinates": [7.097108, 6.308152]}, "properties": {"title": "SUPPLY OF TRANSFORMERS TO ENEKWESUMPU NKPOR, IDEMILI NORTH ANAMBRA STATE.", "year": "2019", "type": "GRID", "type2": "GRID", "status": "COMPLETED", "location": "ENEKWESUMPU NKPOR", "contractor": "GIO-BISIANO NIGERIA LIMITED", "lot": "D114", "state": "ANAMBRA", "state_raw": "ANAMBRA"}}, {"type": "Feature", "geometry": {"type": "Point", "coordinates": [7.01519, 6.662599]}, "properties": {"title": "PROVISION & INSTALLATION OF  TRANSFORMER IN AGBILIGBA (AMAOKWE) IN ORUMBA NORTH LGA, ANAMBRA STATE", "year": "2019", "type": "GRID", "type2": "GRID", "status": "COMPLETED", "location": "AGBILIGBA (AMAOKWE)", "contractor": "MANDA IMPEX LTD", "lot": "D116", "state": "ANAMBRA", "state_raw": "ANAMBRA"}}, {"type": "Feature", "geometry": {"type": "Point", "coordinates": [6.823775, 6.119229]}, "properties": {"title": "PROVISION/INSTALLATION OF  500 KVA TRANSFORMER AT CHIEF JOHN OKOYE STREET, AMAFOR NKPOR-UNO, IDEMILI NORTH LGA OF ANAMBRA STATE", "year": "2019", "type": "GRID", "type2": "GRID", "status": "COMPLETED", "location": "CHIEF JOHN OKOYE STREET, AMAFOR NKPOR-UNO", "contractor": "SFY ENGINEERING & SUPPLY LIMITED", "lot": "D119", "state": "ANAMBRA", "state_raw": "ANAMBRA"}}, {"type": "Feature", "geometry": {"type": "Point", "coordinates": [6.825381, 6.209614]}, "properties": {"title": "INSTALLATION OF SOLAR STREET LIGHT AT NGOGWUGWU VILLAGE IN OJOTA OBOFIA IN IDEMILI SOUTH LGA OF ANAMBRA STATE", "year": "2019", "type": "SOLAR STREET LIGHT", "type2": "SSL", "status": "COMPLETED", "location": "NGOGWUGWU VILLAGE", "contractor": "PLAIN PROJECT LTD", "lot": "C087", "state": "ANAMBRA", "state_raw": "ANAMBRA"}}, {"type": "Feature", "geometry": {"type": "Point", "coordinates": [6.961978, 6.119036]}, "properties": {"title": "PROVISION/INSTALLATION OF SOLAR STREET LIGHTS AT VARIOUS LOCATIONS IN OGBARU, ANAMBRA STATE", "year": "2019", "type": "SOLAR STREET LIGHT", "type2": "SSL", "status": "COMPLETED", "location": "OGBARU,", "contractor": "PONSEL NIG. LTD.", "lot": "C089", "state": "ANAMBRA", "state_raw": "ANAMBRA"}}, {"type": "Feature", "geometry": {"type": "Point", "coordinates": [6.87424, 6.156836]}, "properties": {"title": "PROCUREMENT/INSTALLATION OF 300KVA TRANSFORMERS AT UMUMBO COMMUNITY IN AYAMELUM LGA, ANAMBRA STATE", "year": "2019", "type": "GRID", "type2": "GRID", "status": "COMPLETED", "location": "UMUMBO COMMUNITY", "contractor": "SAM-SMITH GLOBAL COMPANY LTD", "lot": "D128", "state": "ANAMBRA", "state_raw": "ANAMBRA"}}, {"type": "Feature", "geometry": {"type": "Point", "coordinates": [6.865485, 6.108343]}, "properties": {"title": "ENHANCEMENT OF ELECTRICITY AND POWER SUPPLY IN EBE/OTHER COMMUNITIES OF UKPOR, NNEWI SOUTH LGA, ANAMBRA STATE", "year": "2019", "type": "GRID", "type2": "GRID", "status": "COMPLETED", "location": "EBE COMMUNITIES", "contractor": "BRAND COOLSTEM VALUES LIMITED", "lot": "D130", "state": "ANAMBRA", "state_raw": "ANAMBRA"}}, {"type": "Feature", "geometry": {"type": "Point", "coordinates": [6.740789, 5.812542]}, "properties": {"title": "PROVISION/INSTALLATION OF SOLAR STREET LIGHT AT UMUONYEAKA VILLAGE, IFITE, ORAIFITE, EKWUSIGO LGA, ANAMBRA STATE", "year": "2019", "type": "SOLAR STREET LIGHT", "type2": "SSL", "status": "COMPLETED", "location": "UMUONYEAKA VILLAGE, IFITE, ORAIFITE,", "contractor": "ALL SEASON INFOTECH NIGERIA LTD", "lot": "C091", "state": "ANAMBRA", "state_raw": "ANAMBRA"}}, {"type": "Feature", "geometry": {"type": "Point", "coordinates": [7.090039, 6.369401]}, "properties": {"title": "PROCUREMENT/INSTALLATION OF 500KVA/33KV TRANSFORMERS AT NNEWI NORTH/SOUTH AND EKWUSIGO FED. CONSTITUENCY, ANAMBRA STATE", "year": "2019", "type": "GRID", "type2": "GRID", "status": "COMPLETED", "location": "NNEWI NORTH/SOUTH AND EKWUSIGO FED. CONSTITUENCY,", "contractor": "TIGER ASPECT SERVICES LIMITED", "lot": "D135", "state": "ANAMBRA", "state_raw": "ANAMBRA"}}, {"type": "Feature", "geometry": {"type": "Point", "coordinates": [7.181624, 5.942671]}, "properties": {"title": "PROVISION OF 2 MINI GRIDS AT NNEWI FED. CONSTITUENCY", "year": "2019", "type": "SOLAR MINI GRID", "type2": "SMG", "status": "COMPLETED", "location": "NNEWI FED. CONSTITUENCY", "contractor": "TIMEBASE DEVELOPMENT SERVICE", "lot": "RT002", "state": "ANAMBRA", "state_raw": "ANAMBRA"}}, {"type": "Feature", "geometry": {"type": "Point", "coordinates": [6.7536, 5.91307]}, "properties": {"title": "PROCUREMENT/INSTALLATION OF 500KVA TRANSFORMER AT UCHENABO IBUGHIBU UMUCHU, ANAMBRA STATE", "year": "2019", "type": "GRID", "type2": "GRID", "status": "COMPLETED", "location": "UCHENABO IBUGHIBU UMUCHU", "contractor": "PRIVIC INVESTMENT LINKS LTD", "lot": "D138", "state": "ANAMBRA", "state_raw": "ANAMBRA"}}, {"type": "Feature", "geometry": {"type": "Point", "coordinates": [7.242841, 6.033766]}, "properties": {"title": "PROCUREMENT AND INSTALLATION OF 300KVA TRANSFORMER AT OZARA ENUGWUABO UFUMA, ORUMBA NORTH LGA, ANAMBRA STATE", "year": "2019", "type": "GRID", "type2": "GRID", "status": "ONGOING", "location": "OZARA ENUGWUABO UFUMA", "contractor": "SKZ CONCEPT INTERNATIONAL LIMITED", "lot": "D139", "state": "ANAMBRA", "state_raw": "ANAMBRA"}}, {"type": "Feature", "geometry": {"type": "Point", "coordinates": [6.70747, 5.820937]}, "properties": {"title": "PROVISION AND INSTALLATION OF SOLAR STREET LIGHT AT NKWELLE VILLAGE ORAUKWU IN IDEMILI NORTH LGA, ANAMBRA STATE", "year": "2019", "type": "GRID/SOLAR STREET LIGHT", "type2": "GRID/SSL", "status": "COMPLETED", "location": "", "contractor": "SHERIF ENGINEERING AND CONSTRUCTION CO. LIMITED", "lot": "C100", "state": "ANAMBRA", "state_raw": "ANAMBRA"}}, {"type": "Feature", "geometry": {"type": "Point", "coordinates": [6.785719, 5.868639]}, "properties": {"title": "PROVISION OF SOLAR STREET LIGHTS AT ENUGWU VILLAGE AWKA SOUTH LGA, ANAMBRA STATE", "year": "2019", "type": "SOLAR STREET LIGHT", "type2": "SSL", "status": "COMPLETED", "location": "AWKA SOUTH", "contractor": "GOZCOM INVESTMENT LTD", "lot": "C101", "state": "ANAMBRA", "state_raw": "ANAMBRA"}}, {"type": "Feature", "geometry": {"type": "Point", "coordinates": [6.776324, 6.028634]}, "properties": {"title": "COMPLETION OF 2 NOS 15MVA INJECTOR 33/11 SUB STATION AT ALOR, IDEMILI SOUTH, ANAMBRA STATE", "year": "2019", "type": "GRID", "type2": "GRID", "status": "COMPLETED", "location": "ALOR", "contractor": "CEWOPI NIG. LTD", "lot": "B005", "state": "ANAMBRA", "state_raw": "ANAMBRA"}}, {"type": "Feature", "geometry": {"type": "Point", "coordinates": [7.151253, 6.192059]}, "properties": {"title": "ERGP 445002585 RURAL ELECTRIFICATION OF OMASI-UNO COMMUNITY AYAMELUM LGA OF ANAMBRA STATE", "year": "2019", "type": "GRID", "type2": "GRID", "status": "COMPLETED", "location": "OMASI-UNO COMMUNITY", "contractor": "BOAS CONSTRUCTION", "lot": "D107", "state": "ANAMBRA", "state_raw": "ANAMBRA"}}, {"type": "Feature", "geometry": {"type": "Point", "coordinates": [8.245203, 6.257227]}, "properties": {"title": "SOLAR STREET LIGHTING SYSTEM, ISHIELU LGA, EBONYI CENTRAL SENATORIAL DISTRICT.", "year": "2019", "type": "SOLAR STREET LIGHT", "type2": "SSL", "status": "COMPLETED", "location": "ISHIELU", "contractor": "SCOTISH CONTRACTORS NIG LTD", "lot": "C081", "state": "EBONYI", "state_raw": "EBONYI"}}, {"type": "Feature", "geometry": {"type": "Point", "coordinates": [8.250169, 6.651766]}, "properties": {"title": "EXTENSION OF POWER (POLES, ALUMINIUM CABLE ETC) TO NEW LAYOUT BETWEEN OKPASUE AND ORRA (3KM) IN OZIZZA AFIPKO NORTH LGA WITH 500KVA TRANSFORMERS", "year": "2019", "type": "GRID", "type2": "GRID", "status": "COMPLETED", "location": "OKPASUE, ORRA", "contractor": "ACUTE OPTIONS LIMITED", "lot": "D122", "state": "EBONYI", "state_raw": "EBONYI"}}, {"type": "Feature", "geometry": {"type": "Point", "coordinates": [8.000611, 6.195666]}, "properties": {"title": "UBURU RURAL ELECTRIFICATION, EBONYI STATE", "year": "2019", "type": "GRID", "type2": "GRID", "status": "COMPLETED", "location": "UBURU", "contractor": "YAHWEH ENERGY SOLUTIONS LIMITED", "lot": "D109", "state": "EBONYI", "state_raw": "EBONYI"}}, {"type": "Feature", "geometry": {"type": "Point", "coordinates": [7.960124, 6.132734]}, "properties": {"title": "SUPPLY AND INSTALLATION OF 20 NUMBERS 500KVA TRANSFORMERS FOR RURAL ELECTRIFICATION IN OHAUKWU, EBONYI, ABAKALIKI AND IZZI LGA OF EBONYI NORTH SENATORIAL DISTRICT, EBONYI STATE", "year": "2019", "type": "GRID", "type2": "GRID", "status": "COMPLETED", "location": "OHAUKWU VILLAGE, IDUMBU-ISHIEKE  NDIAGBO, AKALEGU, OFIENWE COMMUNITY AND IGWELEDEDON", "contractor": "2WHITE DOVE GLOBAL SERVICE LTD", "lot": "D106", "state": "EBONYI", "state_raw": "EBONYI"}}, {"type": "Feature", "geometry": {"type": "Point", "coordinates": [7.576174, 6.501642]},